{"type":"FeatureCollection","features":[{"type":"Feature","id":0,"geometry":{"type":"Point","coordinates":[-75.202759452362571,6.8182657065345573]},"properties":{"FID":0,"CODIGO":188,"NOMBRE":"Guadalupe III","TIPO":"Hidráulica con Pelton","COD_EMP":8,"VIDA_UT":30,"TIPO_COM":" ","UNIDAD":" ","OBSERVA":" ","IND_TRA":0,"NOM_SUBS":"SALTO","CLASE":"Hidraulica","FAC_POT":0.84999999999999998,"CAP_NOM":270,"CAP_EFEC":270,"CAP_NET":270,"ANO_ENT":1966,"DISPONIB":227.19999999999999,"CAP_AN_G":1578.02,"CON_COMB":0}},{"type":"Feature","id":1,"geometry":{"type":"Point","coordinates":[-74.933071254391123,6.2822630279278284]},"properties":{"FID":1,"CODIGO":167,"NOMBRE":"Playas","TIPO":"Hidráulica con Francis","COD_EMP":8,"VIDA_UT":30,"TIPO_COM":" ","UNIDAD":" ","OBSERVA":" ","IND_TRA":0,"NOM_SUBS":"PLAYAS","CLASE":"Hidraulica","FAC_POT":0.90000000000000002,"CAP_NOM":204,"CAP_EFEC":201,"CAP_NET":201,"ANO_ENT":1988,"DISPONIB":184.5,"CAP_AN_G":1410.78,"CON_COMB":0}},{"type":"Feature","id":2,"geometry":{"type":"Point","coordinates":[-74.983815220205841,6.3765068323589604]},"properties":{"FID":2,"CODIGO":109,"NOMBRE":"Jaguas","TIPO":"Hidráulica con Francis","COD_EMP":25,"VIDA_UT":30,"TIPO_COM":" ","UNIDAD":" ","OBSERVA":" ","IND_TRA":0,"NOM_SUBS":"JAGUAS","CLASE":"Hidraulica","FAC_POT":0.90000000000000002,"CAP_NOM":170,"CAP_EFEC":170,"CAP_NET":170,"ANO_ENT":1988,"DISPONIB":156.19999999999999,"CAP_AN_G":636.42999999999995,"CON_COMB":0}},{"type":"Feature","id":3,"geometry":{"type":"Point","coordinates":[-75.583300029861746,6.1509430735188744]},"properties":{"FID":3,"CODIGO":5,"NOMBRE":"La Ayura","TIPO":"Hidráulica con Francis","COD_EMP":8,"VIDA_UT":30,"TIPO_COM":" ","UNIDAD":" ","OBSERVA":"MENORES DE EEPPMM","IND_TRA":0,"NOM_SUBS":"ANCON SUR","CLASE":"Hidraulica","FAC_POT":0.90000000000000002,"CAP_NOM":19.100000000000001,"CAP_EFEC":19,"CAP_NET":19.100000000000001,"ANO_ENT":0,"DISPONIB":9.4000000000000004,"CAP_AN_G":74.950000000000003,"CON_COMB":0}},{"type":"Feature","id":4,"geometry":{"type":"Point","coordinates":[-75.139925731014188,6.2400650979155952]},"properties":{"FID":4,"CODIGO":100,"NOMBRE":"Guatape","TIPO":"Hidráulica con Pelton","COD_EMP":8,"VIDA_UT":30,"TIPO_COM":" ","UNIDAD":" ","OBSERVA":" ","IND_TRA":0,"NOM_SUBS":"GUATAPE","CLASE":"Hidraulica","FAC_POT":0.84999999999999998,"CAP_NOM":561.20000000000005,"CAP_EFEC":560,"CAP_NET":560,"ANO_ENT":1980,"DISPONIB":497,"CAP_AN_G":2561.3099999999999,"CON_COMB":0}},{"type":"Feature","id":5,"geometry":{"type":"Point","coordinates":[-75.286650926908393,6.7807665617808164]},"properties":{"FID":5,"CODIGO":97,"NOMBRE":"Guadalupe IV","TIPO":"Hidráulica con Francis","COD_EMP":8,"VIDA_UT":30,"TIPO_COM":" ","UNIDAD":" ","OBSERVA":" ","IND_TRA":0,"NOM_SUBS":"GUADALUPE IV","CLASE":"Hidraulica","FAC_POT":0.90000000000000002,"CAP_NOM":216,"CAP_EFEC":202,"CAP_NET":202,"ANO_ENT":1985,"DISPONIB":164.09999999999999,"CAP_AN_G":1156.8499999999999,"CON_COMB":0}},{"type":"Feature","id":6,"geometry":{"type":"Point","coordinates":[-74.834035551247183,6.2010574601051465]},"properties":{"FID":6,"CODIGO":194,"NOMBRE":"San Carlos I y II","TIPO":"Hidráulica con Pelton","COD_EMP":25,"VIDA_UT":30,"TIPO_COM":" ","UNIDAD":" ","OBSERVA":" ","IND_TRA":0,"NOM_SUBS":"SAN CARLOS","CLASE":"Hidraulica","FAC_POT":0.90000000000000002,"CAP_NOM":1240,"CAP_EFEC":1240,"CAP_NET":1240,"ANO_ENT":1984,"DISPONIB":2253.5999999999999,"CAP_AN_G":10816,"CON_COMB":0}},{"type":"Feature","id":7,"geometry":{"type":"Point","coordinates":[-75.572512707779936,6.3530806571200751]},"properties":{"FID":7,"CODIGO":21,"NOMBRE":"Niquia","TIPO":"Hidráulica con Pelton","COD_EMP":8,"VIDA_UT":30,"TIPO_COM":" ","UNIDAD":" ","OBSERVA":"MENORES DE EEPPMM","IND_TRA":0,"NOM_SUBS":"BELLO","CLASE":"Hidraulica","FAC_POT":0.94999999999999996,"CAP_NOM":22.5,"CAP_EFEC":22.5,"CAP_NET":22.600000000000001,"ANO_ENT":0,"DISPONIB":9.4000000000000004,"CAP_AN_G":74.950000000000003,"CON_COMB":0}},{"type":"Feature","id":8,"geometry":{"type":"Point","coordinates":[-75.447390009626034,6.5085153944066843]},"properties":{"FID":8,"CODIGO":0,"NOMBRE":"Riogrande I","TIPO":"Francis","COD_EMP":0,"VIDA_UT":0,"TIPO_COM":" ","UNIDAD":" ","OBSERVA":" ","IND_TRA":0,"NOM_SUBS":" ","CLASE":"Hidraulica","FAC_POT":0.80000000000000004,"CAP_NOM":75.5,"CAP_EFEC":75,"CAP_NET":75,"ANO_ENT":0,"DISPONIB":0,"CAP_AN_G":0,"CON_COMB":0}},{"type":"Feature","id":9,"geometry":{"type":"Point","coordinates":[-75.523505257061686,6.3731378253224076]},"properties":{"FID":9,"CODIGO":0,"NOMBRE":"Tasajera","TIPO":"Pelton","COD_EMP":0,"VIDA_UT":0,"TIPO_COM":" ","UNIDAD":" ","OBSERVA":" ","IND_TRA":0,"NOM_SUBS":" ","CLASE":"Hidraulica","FAC_POT":0.94999999999999996,"CAP_NOM":313.5,"CAP_EFEC":309.89999999999998,"CAP_NET":309.89999999999998,"ANO_ENT":1994,"DISPONIB":0,"CAP_AN_G":0,"CON_COMB":0}},{"type":"Feature","id":10,"geometry":{"type":"Point","coordinates":[-74.561706362191728,6.2455097496181349]},"properties":{"FID":10,"CODIGO":0,"NOMBRE":"Sierra I y II","TIPO":"Gas","COD_EMP":0,"VIDA_UT":0,"TIPO_COM":" ","UNIDAD":" ","OBSERVA":" ","IND_TRA":0,"NOM_SUBS":" ","CLASE":"Termica","FAC_POT":0.84999999999999998,"CAP_NOM":300,"CAP_EFEC":300,"CAP_NET":300,"ANO_ENT":1998,"DISPONIB":0,"CAP_AN_G":0,"CON_COMB":0}}]}