{"type":"FeatureCollection","features":[{"type":"Feature","id":0,"geometry":{"type":"Point","coordinates":[-76.867057217781408,6.798660413638741]},"properties":{"FID":0,"CORREGIM_I":220,"NAME":"OPOGADO","TIPO":"Corregimiento","CODANE":"05475","CLASE":"C","CODSITIO":"001","TEMP":"05475001"}},{"type":"Feature","id":1,"geometry":{"type":"Point","coordinates":[-76.817365846485941,6.53635532736486]},"properties":{"FID":1,"CORREGIM_I":231,"NAME":"SAN MIGUEL","TIPO":"Corregimiento","CODANE":"05873","CLASE":"C","CODSITIO":"005","TEMP":"05873005"}},{"type":"Feature","id":2,"geometry":{"type":"Point","coordinates":[-76.758131937906072,6.2970776342385806]},"properties":{"FID":2,"CORREGIM_I":232,"NAME":"SAN ANTONIO DE PADUA","TIPO":"Corregimiento","CODANE":"05873","CLASE":"C","CODSITIO":"001","TEMP":"05873001"}},{"type":"Feature","id":3,"geometry":{"type":"Point","coordinates":[-76.541337063987058,6.2110268297221332]},"properties":{"FID":3,"CORREGIM_I":233,"NAME":"VEGAEZ","TIPO":"Corregimiento","CODANE":"05873","CLASE":"C","CODSITIO":"002","TEMP":"05873002"}},{"type":"Feature","id":4,"geometry":{"type":"Point","coordinates":[-76.507095350354419,8.0318744080410163]},"properties":{"FID":4,"CORREGIM_I":234,"NAME":"NUEVA ANTIOQUIA","TIPO":"Corregimiento","CODANE":"05837","CLASE":"C","CODSITIO":"002","TEMP":"05837002"}},{"type":"Feature","id":5,"geometry":{"type":"Point","coordinates":[-76.762671160760632,7.8468749406323264]},"properties":{"FID":5,"CORREGIM_I":235,"NAME":"BIJAGUAL","TIPO":"Corregimiento","CODANE":"05147","CLASE":"C","CODSITIO":"001","TEMP":"05147001"}},{"type":"Feature","id":6,"geometry":{"type":"Point","coordinates":[-76.523976562151802,8.1931477722315051]},"properties":{"FID":6,"CORREGIM_I":236,"NAME":"PUEBLO BELLO","TIPO":"Corregimiento","CODANE":"05837","CLASE":"C","CODSITIO":"012","TEMP":"05837012"}},{"type":"Feature","id":7,"geometry":{"type":"Point","coordinates":[-76.455307393222327,8.6552635151210282]},"properties":{"FID":7,"CORREGIM_I":243,"NAME":"LA CANDELARIA","TIPO":"Corregimiento","CODANE":"05051","CLASE":"C","CODSITIO":"011","TEMP":"05051011"}},{"type":"Feature","id":8,"geometry":{"type":"Point","coordinates":[-76.495361307645112,8.6922414165938875]},"properties":{"FID":8,"CORREGIM_I":244,"NAME":"SAN JUANCITO","TIPO":"Corregimiento","CODANE":"05659","CLASE":"C","CODSITIO":"002","TEMP":"05659002"}},{"type":"Feature","id":9,"geometry":{"type":"Point","coordinates":[-76.593317427419805,8.7351388459073807]},"properties":{"FID":9,"CORREGIM_I":245,"NAME":"DAMAQUIEL","TIPO":"Corregimiento","CODANE":"05659","CLASE":"C","CODSITIO":"001","TEMP":"05659001"}},{"type":"Feature","id":10,"geometry":{"type":"Point","coordinates":[-76.563167407987606,8.7424920975085083]},"properties":{"FID":10,"CORREGIM_I":246,"NAME":"UVEROS","TIPO":"Corregimiento","CODANE":"05659","CLASE":"C","CODSITIO":"003","TEMP":"05659003"}},{"type":"Feature","id":11,"geometry":{"type":"Point","coordinates":[-76.344385027183179,8.5931892161894421]},"properties":{"FID":11,"CORREGIM_I":247,"NAME":"BUENOS AIRES","TIPO":"Corregimiento","CODANE":"05051","CLASE":"C","CODSITIO":"001","TEMP":"05051001"}},{"type":"Feature","id":12,"geometry":{"type":"Point","coordinates":[-75.686186952130171,6.3513124130911374]},"properties":{"FID":12,"CORREGIM_I":283,"NAME":"PALMITAS","TIPO":"Corregimiento","CODANE":"05001","CLASE":"C","CODSITIO":"001","TEMP":"05001001"}},{"type":"Feature","id":13,"geometry":{"type":"Point","coordinates":[-75.773797690324443,6.7226115259572508]},"properties":{"FID":13,"CORREGIM_I":287,"NAME":"LA PLACITA","TIPO":"Corregimiento","CODANE":"05411","CLASE":"C","CODSITIO":"004","TEMP":"05411004"}},{"type":"Feature","id":14,"geometry":{"type":"Point","coordinates":[-75.614666008834575,7.0784133851374591]},"properties":{"FID":14,"CORREGIM_I":311,"NAME":"BERLIN","TIPO":"Corregimiento","CODANE":"05107","CLASE":"C","CODSITIO":"001","TEMP":"05107001"}},{"type":"Feature","id":15,"geometry":{"type":"Point","coordinates":[-74.762107608426945,5.924302042657537]},"properties":{"FID":15,"CORREGIM_I":404,"NAME":"LAS MERCEDES","TIPO":"Corregimiento","CODANE":"05591","CLASE":"C","CODSITIO":"005","TEMP":"05591005"}},{"type":"Feature","id":16,"geometry":{"type":"Point","coordinates":[-75.217323748481917,5.6163782083323515]},"properties":{"FID":16,"CORREGIM_I":420,"NAME":"NARINO","TIPO":"Corregimiento","CODANE":"05483","CLASE":"C","CODSITIO":" ","TEMP":"05483"}},{"type":"Feature","id":17,"geometry":{"type":"Point","coordinates":[-74.816575308645255,5.8045254074608765]},"properties":{"FID":17,"CORREGIM_I":441,"NAME":"LA DANTA","TIPO":"Corregimiento","CODANE":"05756","CLASE":"C","CODSITIO":"030","TEMP":"05756030"}},{"type":"Feature","id":18,"geometry":{"type":"Point","coordinates":[-74.743188485014556,7.7034549797524319]},"properties":{"FID":18,"CORREGIM_I":469,"NAME":"PUERTO CLAVER","TIPO":"Corregimiento","CODANE":"05250","CLASE":"C","CODSITIO":"002","TEMP":"05250002"}},{"type":"Feature","id":19,"geometry":{"type":"Point","coordinates":[-74.746159421520446,7.6730800542508097]},"properties":{"FID":19,"CORREGIM_I":470,"NAME":"SANTA MARGARITA","TIPO":"Corregimiento","CODANE":"05250","CLASE":"C","CODSITIO":"001","TEMP":"05250001"}},{"type":"Feature","id":20,"geometry":{"type":"Point","coordinates":[-74.778287591405572,8.1631683212198656]},"properties":{"FID":20,"CORREGIM_I":471,"NAME":"SANTA MARGARITA","TIPO":"Corregimiento","CODANE":"05495","CLASE":"C","CODSITIO":" ","TEMP":"05495"}},{"type":"Feature","id":21,"geometry":{"type":"Point","coordinates":[-75.056793827482778,6.1992617755633823]},"properties":{"FID":21,"CORREGIM_I":849,"NAME":"VIUDA CALDERA","TIPO":"Caserio","CODANE":"05649","CLASE":"CAS","CODSITIO":" ","TEMP":"05649"}},{"type":"Feature","id":22,"geometry":{"type":"Point","coordinates":[-76.697568731241361,6.1779733004849238]},"properties":{"FID":22,"CORREGIM_I":1239,"NAME":"PALO BLANCO","TIPO":"Corregimiento","CODANE":"05873","CLASE":"C","CODSITIO":"009","TEMP":"05873009"}},{"type":"Feature","id":23,"geometry":{"type":"Point","coordinates":[-75.95831259657227,5.8316762262213793]},"properties":{"FID":23,"CORREGIM_I":1287,"NAME":"SAN MIGUEL","TIPO":"Caserio","CODANE":"05101","CLASE":"CAS","CODSITIO":" ","TEMP":"05101"}},{"type":"Feature","id":24,"geometry":{"type":"Point","coordinates":[-75.996306427613519,5.9161143753707535]},"properties":{"FID":24,"CORREGIM_I":1299,"NAME":"SAMARIA","TIPO":"Caserio","CODANE":"05642","CLASE":"CAS","CODSITIO":" ","TEMP":"05642"}},{"type":"Feature","id":25,"geometry":{"type":"Point","coordinates":[-76.009500859256278,5.7279219332408147]},"properties":{"FID":25,"CORREGIM_I":1301,"NAME":"GUARICO","TIPO":"Caserio","CODANE":"05091","CLASE":"CAS","CODSITIO":" ","TEMP":"05091"}},{"type":"Feature","id":26,"geometry":{"type":"Point","coordinates":[-75.999928170028824,5.7657952159031911]},"properties":{"FID":26,"CORREGIM_I":1302,"NAME":"PEDRAL","TIPO":"Caserio","CODANE":"05101","CLASE":"CAS","CODSITIO":" ","TEMP":"05101"}},{"type":"Feature","id":27,"geometry":{"type":"Point","coordinates":[-76.162541846315591,6.1557769052373121]},"properties":{"FID":27,"CORREGIM_I":1303,"NAME":"PABON","TIPO":"Caserio","CODANE":"05847","CLASE":"CAS","CODSITIO":" ","TEMP":"05847"}},{"type":"Feature","id":28,"geometry":{"type":"Point","coordinates":[-76.096643984503203,6.1670191723497494]},"properties":{"FID":28,"CORREGIM_I":1304,"NAME":"SANTA ISABEL","TIPO":"Caserio","CODANE":"05847","CLASE":"CAS","CODSITIO":"006","TEMP":"05847006"}},{"type":"Feature","id":29,"geometry":{"type":"Point","coordinates":[-75.949218534382823,5.6526631802821994]},"properties":{"FID":29,"CORREGIM_I":1328,"NAME":"QUBRADA ARRIBA","TIPO":"Inspección","CODANE":"05034","CLASE":"IP","CODSITIO":"009","TEMP":"05034009"}},{"type":"Feature","id":30,"geometry":{"type":"Point","coordinates":[-75.937393724532299,5.6281084289132952]},"properties":{"FID":30,"CORREGIM_I":1329,"NAME":"SANB AGUSTIN","TIPO":"Caserio","CODANE":"05034","CLASE":"CAS","CODSITIO":" ","TEMP":"05034"}},{"type":"Feature","id":31,"geometry":{"type":"Point","coordinates":[-75.851685680842266,5.6489107678811514]},"properties":{"FID":31,"CORREGIM_I":1331,"NAME":"SAN BARTOLO","TIPO":"Caserio","CODANE":"05034","CLASE":"CAS","CODSITIO":" ","TEMP":"05034"}},{"type":"Feature","id":32,"geometry":{"type":"Point","coordinates":[-75.933713422884722,5.7855460357187649]},"properties":{"FID":32,"CORREGIM_I":1332,"NAME":"MIRANDA","TIPO":"Caserio","CODANE":"05353","CLASE":"CAS","CODSITIO":" ","TEMP":"05353"}},{"type":"Feature","id":33,"geometry":{"type":"Point","coordinates":[-75.933249577650685,6.1368112277480273]},"properties":{"FID":33,"CORREGIM_I":1333,"NAME":"SAN ANTONIO","TIPO":"Caserio","CODANE":"05093","CLASE":"CAS","CODSITIO":" ","TEMP":"05093"}},{"type":"Feature","id":34,"geometry":{"type":"Point","coordinates":[-75.762902382155744,6.1185930166174947]},"properties":{"FID":34,"CORREGIM_I":1340,"NAME":"SANTA ANA","TIPO":"Corregimiento","CODANE":"05036","CLASE":"C","CODSITIO":"003","TEMP":"05036003"}},{"type":"Feature","id":35,"geometry":{"type":"Point","coordinates":[-75.773604018540027,5.7687733318271839]},"properties":{"FID":35,"CORREGIM_I":1341,"NAME":"LA ESTRELLA","TIPO":"Caserio","CODANE":"05368","CLASE":"CAS","CODSITIO":" ","TEMP":"05368"}},{"type":"Feature","id":36,"geometry":{"type":"Point","coordinates":[-75.749908487950336,5.6860552657794985]},"properties":{"FID":36,"CORREGIM_I":1342,"NAME":"MINAS","TIPO":"Caserio","CODANE":"05789","CLASE":"CAS","CODSITIO":" ","TEMP":"05789"}},{"type":"Feature","id":37,"geometry":{"type":"Point","coordinates":[-75.523144953897216,5.7112645219931339]},"properties":{"FID":37,"CORREGIM_I":1758,"NAME":"Pantanillo","TIPO":"Caserio","CODANE":"05002","CLASE":"CAS","CODSITIO":"002","TEMP":"05002002"}},{"type":"Feature","id":38,"geometry":{"type":"Point","coordinates":[-75.459352150507513,5.8215486455902479]},"properties":{"FID":38,"CORREGIM_I":1760,"NAME":"GUARANGO","TIPO":"Caserio","CODANE":"05002","CLASE":"CAS","CODSITIO":" ","TEMP":"05002"}},{"type":"Feature","id":39,"geometry":{"type":"Point","coordinates":[-75.231244190856387,5.6918975299189611]},"properties":{"FID":39,"CORREGIM_I":1761,"NAME":"LA QUIEBRA","TIPO":"Caserio","CODANE":"05756","CLASE":"CAS","CODSITIO":" ","TEMP":"05756"}},{"type":"Feature","id":40,"geometry":{"type":"Point","coordinates":[-75.361543838411635,5.6554514533069948]},"properties":{"FID":40,"CORREGIM_I":1763,"NAME":"SAN RAFAEL","TIPO":"Caserio","CODANE":"05756","CLASE":"CAS","CODSITIO":" ","TEMP":"05756"}},{"type":"Feature","id":41,"geometry":{"type":"Point","coordinates":[-75.373679462098607,5.6787129123013083]},"properties":{"FID":41,"CORREGIM_I":1764,"NAME":"EL ROBLAL","TIPO":"Caserio","CODANE":"05756","CLASE":"CAS","CODSITIO":" ","TEMP":"05756"}},{"type":"Feature","id":42,"geometry":{"type":"Point","coordinates":[-75.127320438164958,5.6709570227139077]},"properties":{"FID":42,"CORREGIM_I":1765,"NAME":"EL ZANEUDO","TIPO":"Caserio","CODANE":"05055","CLASE":"CAS","CODSITIO":" ","TEMP":"05055"}},{"type":"Feature","id":43,"geometry":{"type":"Point","coordinates":[-75.268781154577511,5.6786669233493416]},"properties":{"FID":43,"CORREGIM_I":1766,"NAME":"YARUMAL","TIPO":"Caserio","CODANE":"05756","CLASE":"CAS","CODSITIO":" ","TEMP":"05756"}},{"type":"Feature","id":44,"geometry":{"type":"Point","coordinates":[-75.299077273202627,6.0401692854437998]},"properties":{"FID":44,"CORREGIM_I":1767,"NAME":"LA HONDA","TIPO":"Caserio","CODANE":"05148","CLASE":"CAS","CODSITIO":" ","TEMP":"05148"}},{"type":"Feature","id":45,"geometry":{"type":"Point","coordinates":[-75.305100720792382,5.8523177001763784]},"properties":{"FID":45,"CORREGIM_I":1768,"NAME":"SAN BARTOLO","TIPO":"Caserio","CODANE":"05400","CLASE":"CAS","CODSITIO":" ","TEMP":"05400"}},{"type":"Feature","id":46,"geometry":{"type":"Point","coordinates":[-75.19076679311091,6.1639330202255831]},"properties":{"FID":46,"CORREGIM_I":1769,"NAME":"LA HONDA","TIPO":"Caserio","CODANE":"05541","CLASE":"CAS","CODSITIO":" ","TEMP":"05541"}},{"type":"Feature","id":47,"geometry":{"type":"Point","coordinates":[-75.202441882343919,6.1476120055589192]},"properties":{"FID":47,"CORREGIM_I":1770,"NAME":"MESETAS","TIPO":"Caserio","CODANE":"05313","CLASE":"CAS","CODSITIO":" ","TEMP":"05313"}},{"type":"Feature","id":48,"geometry":{"type":"Point","coordinates":[-75.140997976456802,6.1882778058375543]},"properties":{"FID":48,"CORREGIM_I":1771,"NAME":"BONILLA","TIPO":"Caserio","CODANE":"05321","CLASE":"CAS","CODSITIO":" ","TEMP":"05321"}},{"type":"Feature","id":49,"geometry":{"type":"Point","coordinates":[-74.887476626105439,6.1868881154105759]},"properties":{"FID":49,"CORREGIM_I":1808,"NAME":"PATIO BONITO","TIPO":"Caserio","CODANE":"05649","CLASE":"CAS","CODSITIO":" ","TEMP":"05649"}},{"type":"Feature","id":50,"geometry":{"type":"Point","coordinates":[-74.974570391947566,6.0630690861308194]},"properties":{"FID":50,"CORREGIM_I":1821,"NAME":"SOPETRAN","TIPO":"Corregimiento","CODANE":"05660","CLASE":"C","CODSITIO":"013","TEMP":"05660013"}},{"type":"Feature","id":51,"geometry":{"type":"Point","coordinates":[-75.046063055941033,6.16052108404189]},"properties":{"FID":51,"CORREGIM_I":1822,"NAME":"PALMICHAL","TIPO":"Caserio","CODANE":"05649","CLASE":"CAS","CODSITIO":" ","TEMP":"05649"}},{"type":"Feature","id":52,"geometry":{"type":"Point","coordinates":[-75.903564841912967,6.6484315650461774]},"properties":{"FID":52,"CORREGIM_I":2012,"NAME":"EL SALADO","TIPO":"Caserio","CODANE":"05306","CLASE":"CAS","CODSITIO":" ","TEMP":"05306"}},{"type":"Feature","id":53,"geometry":{"type":"Point","coordinates":[-76.081993918894042,6.7585992879568817]},"properties":{"FID":53,"CORREGIM_I":2034,"NAME":"HONDA","TIPO":"Caserio","CODANE":"05284","CLASE":"CAS","CODSITIO":" ","TEMP":"05284"}},{"type":"Feature","id":54,"geometry":{"type":"Point","coordinates":[-76.153788831468574,6.3833210939683767]},"properties":{"FID":54,"CORREGIM_I":2035,"NAME":"LA HONDA","TIPO":"Caserio","CODANE":"05847","CLASE":"CAS","CODSITIO":"008","TEMP":"05847008"}},{"type":"Feature","id":55,"geometry":{"type":"Point","coordinates":[-76.252470694425796,6.3917425434760888]},"properties":{"FID":55,"CORREGIM_I":2036,"NAME":"RIO ABAJO","TIPO":"Caserio","CODANE":"05847","CLASE":"CAS","CODSITIO":" ","TEMP":"05847"}},{"type":"Feature","id":56,"geometry":{"type":"Point","coordinates":[-76.170002522335963,6.309281345125779]},"properties":{"FID":56,"CORREGIM_I":2037,"NAME":"OROBUGO","TIPO":"Caserio","CODANE":"05847","CLASE":"CAS","CODSITIO":" ","TEMP":"05847"}},{"type":"Feature","id":57,"geometry":{"type":"Point","coordinates":[-76.239433738743202,6.7491974792996681]},"properties":{"FID":57,"CORREGIM_I":2038,"NAME":"CURADIENTES","TIPO":"Caserio","CODANE":"05284","CLASE":"CAS","CODSITIO":" ","TEMP":"05284"}},{"type":"Feature","id":58,"geometry":{"type":"Point","coordinates":[-76.234697195303951,6.7205195198007965]},"properties":{"FID":58,"CORREGIM_I":2039,"NAME":"EL CHUSCAL","TIPO":"Caserio","CODANE":"05284","CLASE":"CAS","CODSITIO":" ","TEMP":"05284"}},{"type":"Feature","id":59,"geometry":{"type":"Point","coordinates":[-75.965693929779462,6.2007128171604435]},"properties":{"FID":59,"CORREGIM_I":2040,"NAME":"SUCRE","TIPO":"Caserio","CODANE":"05093","CLASE":"CAS","CODSITIO":" ","TEMP":"05093"}},{"type":"Feature","id":60,"geometry":{"type":"Point","coordinates":[-76.107408494619222,6.3891268229365599]},"properties":{"FID":60,"CORREGIM_I":2041,"NAME":"SALADITOS","TIPO":"Caserio","CODANE":"05847","CLASE":"CAS","CODSITIO":" ","TEMP":"05847"}},{"type":"Feature","id":61,"geometry":{"type":"Point","coordinates":[-76.089360927818674,6.3289652617693601]},"properties":{"FID":61,"CORREGIM_I":2042,"NAME":"SAN AGUSTIN","TIPO":"Caserio","CODANE":"05847","CLASE":"CAS","CODSITIO":" ","TEMP":"05847"}},{"type":"Feature","id":62,"geometry":{"type":"Point","coordinates":[-76.083830647241996,6.3773534387709097]},"properties":{"FID":62,"CORREGIM_I":2043,"NAME":"LA ANA","TIPO":"Caserio","CODANE":"05847","CLASE":"CAS","CODSITIO":" ","TEMP":"05847"}},{"type":"Feature","id":63,"geometry":{"type":"Point","coordinates":[-76.393335971911853,7.1360638335687341]},"properties":{"FID":63,"CORREGIM_I":2044,"NAME":"TAPARALRES","TIPO":"Caserio","CODANE":"05234","CLASE":"CAS","CODSITIO":" ","TEMP":"05234"}},{"type":"Feature","id":64,"geometry":{"type":"Point","coordinates":[-76.405835497929573,7.0474847170363315]},"properties":{"FID":64,"CORREGIM_I":2046,"NAME":"TASCON","TIPO":"Caserio","CODANE":"05234","CLASE":"CAS","CODSITIO":" ","TEMP":"05234"}},{"type":"Feature","id":65,"geometry":{"type":"Point","coordinates":[-76.195883470348065,7.0586757385294465]},"properties":{"FID":65,"CORREGIM_I":2050,"NAME":"PLAYONES","TIPO":"Caserio","CODANE":"05234","CLASE":"CAS","CODSITIO":" ","TEMP":"05234"}},{"type":"Feature","id":66,"geometry":{"type":"Point","coordinates":[-76.290868253558756,6.8936395301739246]},"properties":{"FID":66,"CORREGIM_I":2051,"NAME":"EL PITAL","TIPO":"Caserio","CODANE":"05234","CLASE":"CAS","CODSITIO":" ","TEMP":"05234"}},{"type":"Feature","id":67,"geometry":{"type":"Point","coordinates":[-76.137120303116305,6.8752322288594128]},"properties":{"FID":67,"CORREGIM_I":2052,"NAME":"CHONTADURO","TIPO":"Caserio","CODANE":"05842","CLASE":"CAS","CODSITIO":" ","TEMP":"05842"}},{"type":"Feature","id":68,"geometry":{"type":"Point","coordinates":[-76.077465802420647,7.1421479064862368]},"properties":{"FID":68,"CORREGIM_I":2053,"NAME":"LA ARGELIA","TIPO":"Caserio","CODANE":"05234","CLASE":"CAS","CODSITIO":" ","TEMP":"05234"}},{"type":"Feature","id":69,"geometry":{"type":"Point","coordinates":[-75.955867106243616,7.2403363051341243]},"properties":{"FID":69,"CORREGIM_I":2054,"NAME":"ANTADO","TIPO":"Caserio","CODANE":"05361","CLASE":"CAS","CODSITIO":" ","TEMP":"05361"}},{"type":"Feature","id":70,"geometry":{"type":"Point","coordinates":[-75.938430849488839,7.2786550023316137]},"properties":{"FID":70,"CORREGIM_I":2055,"NAME":"EL SUSPIRO","TIPO":"Caserio","CODANE":"05361","CLASE":"CAS","CODSITIO":" ","TEMP":"05361"}},{"type":"Feature","id":71,"geometry":{"type":"Point","coordinates":[-76.909330934512241,7.6274993501144337]},"properties":{"FID":71,"CORREGIM_I":2056,"NAME":"LOMAS AISLADAS","TIPO":"Inspección","CODANE":"05837","CLASE":"IP","CODSITIO":"007","TEMP":"05837007"}},{"type":"Feature","id":72,"geometry":{"type":"Point","coordinates":[-76.437678617979131,8.0482152067567529]},"properties":{"FID":72,"CORREGIM_I":2078,"NAME":"LAS FLORES","TIPO":"Caserio","CODANE":"05045","CLASE":"CAS","CODSITIO":" ","TEMP":"05045"}},{"type":"Feature","id":73,"geometry":{"type":"Point","coordinates":[-76.703702526664543,7.6878172011739458]},"properties":{"FID":73,"CORREGIM_I":2079,"NAME":"QUEBRADA","TIPO":"Caserio","CODANE":"05172","CLASE":"CAS","CODSITIO":" ","TEMP":"05172"}},{"type":"Feature","id":74,"geometry":{"type":"Point","coordinates":[-76.759718588428385,7.62761268703707]},"properties":{"FID":74,"CORREGIM_I":2080,"NAME":"BOHIO","TIPO":"Caserio","CODANE":"05172","CLASE":"CAS","CODSITIO":" ","TEMP":"05172"}},{"type":"Feature","id":75,"geometry":{"type":"Point","coordinates":[-76.7310291222758,7.6818682995251573]},"properties":{"FID":75,"CORREGIM_I":2081,"NAME":"HONDA","TIPO":"Caserio","CODANE":"05172","CLASE":"CAS","CODSITIO":" ","TEMP":"05172"}},{"type":"Feature","id":76,"geometry":{"type":"Point","coordinates":[-76.615713304780826,7.5493296848172609]},"properties":{"FID":76,"CORREGIM_I":2082,"NAME":"GUAPA","TIPO":"Caserio","CODANE":"05172","CLASE":"CAS","CODSITIO":" ","TEMP":"05172"}},{"type":"Feature","id":77,"geometry":{"type":"Point","coordinates":[-76.645089024542585,7.5016879701245243]},"properties":{"FID":77,"CORREGIM_I":2083,"NAME":"RIONLEON","TIPO":"Caserio","CODANE":"05172","CLASE":"CAS","CODSITIO":" ","TEMP":"05172"}},{"type":"Feature","id":78,"geometry":{"type":"Point","coordinates":[-76.656964936446428,7.5263425069765511]},"properties":{"FID":78,"CORREGIM_I":2084,"NAME":"CANUZALES","TIPO":"Caserio","CODANE":"05172","CLASE":"CAS","CODSITIO":" ","TEMP":"05172"}},{"type":"Feature","id":79,"geometry":{"type":"Point","coordinates":[-76.570350729612841,7.5002569131442387]},"properties":{"FID":79,"CORREGIM_I":2085,"NAME":"PORROSOS","TIPO":"Caserio","CODANE":"05172","CLASE":"CAS","CODSITIO":" ","TEMP":"05172"}},{"type":"Feature","id":80,"geometry":{"type":"Point","coordinates":[-76.667643656230865,7.6949736420336885]},"properties":{"FID":80,"CORREGIM_I":2086,"NAME":"DAMASCO","TIPO":"Caserio","CODANE":"05172","CLASE":"CAS","CODSITIO":" ","TEMP":"05172"}},{"type":"Feature","id":81,"geometry":{"type":"Point","coordinates":[-76.660581274997043,7.6590912685924204]},"properties":{"FID":81,"CORREGIM_I":2087,"NAME":"BUJIA","TIPO":"Caserio","CODANE":"05172","CLASE":"CAS","CODSITIO":" ","TEMP":"05172"}},{"type":"Feature","id":82,"geometry":{"type":"Point","coordinates":[-76.432471735814133,8.6984893453802297]},"properties":{"FID":82,"CORREGIM_I":2088,"NAME":"SIETE HERMANAS","TIPO":"Caserio","CODANE":"05051","CLASE":"CAS","CODSITIO":"007","TEMP":"05051007"}},{"type":"Feature","id":83,"geometry":{"type":"Point","coordinates":[-76.489048578461109,8.3969595415136666]},"properties":{"FID":83,"CORREGIM_I":2089,"NAME":"BRUNITO","TIPO":"Caserio","CODANE":"05490","CLASE":"CAS","CODSITIO":" ","TEMP":"05490"}},{"type":"Feature","id":84,"geometry":{"type":"Point","coordinates":[-76.669857805505487,8.2722871377416318]},"properties":{"FID":84,"CORREGIM_I":2090,"NAME":"SAN RAFAEL","TIPO":"Caserio","CODANE":"05837","CLASE":"CAS","CODSITIO":" ","TEMP":"05837"}},{"type":"Feature","id":85,"geometry":{"type":"Point","coordinates":[-76.481514741541972,8.7333433337913426]},"properties":{"FID":85,"CORREGIM_I":2091,"NAME":"SANTA CATALINA","TIPO":"Caserio","CODANE":"05659","CLASE":"CAS","CODSITIO":" ","TEMP":"05659"}},{"type":"Feature","id":86,"geometry":{"type":"Point","coordinates":[-76.486002304092892,8.7985490147233101]},"properties":{"FID":86,"CORREGIM_I":2092,"NAME":"EL DESTINO","TIPO":"Caserio","CODANE":"05659","CLASE":"CAS","CODSITIO":" ","TEMP":"05659"}},{"type":"Feature","id":87,"geometry":{"type":"Point","coordinates":[-76.475526106197094,8.779409546318357]},"properties":{"FID":87,"CORREGIM_I":2093,"NAME":"LAS LAJAS","TIPO":"Caserio","CODANE":"05659","CLASE":"CAS","CODSITIO":" ","TEMP":"05659"}},{"type":"Feature","id":88,"geometry":{"type":"Point","coordinates":[-76.312692779470623,8.5680218200220715]},"properties":{"FID":88,"CORREGIM_I":2094,"NAME":"PUNTA DE LA VACA","TIPO":"Caserio","CODANE":"05051","CLASE":"CAS","CODSITIO":" ","TEMP":"05051"}},{"type":"Feature","id":89,"geometry":{"type":"Point","coordinates":[-76.275477397728096,8.4904591325631955]},"properties":{"FID":89,"CORREGIM_I":2095,"NAME":"TITUMAN","TIPO":"Caserio","CODANE":"05665","CLASE":"CAS","CODSITIO":" ","TEMP":"05665"}},{"type":"Feature","id":90,"geometry":{"type":"Point","coordinates":[-76.209598362794068,8.4941679846210416]},"properties":{"FID":90,"CORREGIM_I":2096,"NAME":"ZAPINDONGA","TIPO":"Inspección","CODANE":"05665","CLASE":"IP","CODSITIO":"004","TEMP":"05665004"}},{"type":"Feature","id":91,"geometry":{"type":"Point","coordinates":[-76.420641255358063,8.7771161265897355]},"properties":{"FID":91,"CORREGIM_I":2097,"NAME":"PAJILLA","TIPO":"Caserio","CODANE":"05051","CLASE":"CAS","CODSITIO":" ","TEMP":"05051"}},{"type":"Feature","id":92,"geometry":{"type":"Point","coordinates":[-76.381085209239586,8.7497316582787583]},"properties":{"FID":92,"CORREGIM_I":2098,"NAME":"BOCHINCHE","TIPO":"Caserio","CODANE":"05051","CLASE":"CAS","CODSITIO":" ","TEMP":"05051"}},{"type":"Feature","id":93,"geometry":{"type":"Point","coordinates":[-75.478549727771082,7.4945558215711481]},"properties":{"FID":93,"CORREGIM_I":2099,"NAME":"CANO DE IGLESIAS","TIPO":"Caserio","CODANE":"05790","CLASE":"CAS","CODSITIO":" ","TEMP":"05790"}},{"type":"Feature","id":94,"geometry":{"type":"Point","coordinates":[-75.244265191496893,6.5814237042249726]},"properties":{"FID":94,"CORREGIM_I":2100,"NAME":"EL CANEY","TIPO":"Inspección","CODANE":"05686","CLASE":"IP","CODSITIO":"010","TEMP":"05686010"}},{"type":"Feature","id":95,"geometry":{"type":"Point","coordinates":[-75.526211846332501,6.5428113812431841]},"properties":{"FID":95,"CORREGIM_I":2101,"NAME":"PENOL","TIPO":"Caserio","CODANE":"05264","CLASE":"CAS","CODSITIO":" ","TEMP":"05264"}},{"type":"Feature","id":96,"geometry":{"type":"Point","coordinates":[-75.548096622275594,6.3613858878038361]},"properties":{"FID":96,"CORREGIM_I":2102,"NAME":"ESPINAL","TIPO":"Caserio","CODANE":"05088","CLASE":"CAS","CODSITIO":" ","TEMP":"05088"}},{"type":"Feature","id":97,"geometry":{"type":"Point","coordinates":[-75.736529076963052,6.3062667097100205]},"properties":{"FID":97,"CORREGIM_I":2103,"NAME":"ELZARZAL","TIPO":"Inspección","CODANE":"05240","CLASE":"IP","CODSITIO":"008","TEMP":"05240008"}},{"type":"Feature","id":98,"geometry":{"type":"Point","coordinates":[-75.753885033442558,6.2815534018908412]},"properties":{"FID":98,"CORREGIM_I":2104,"NAME":"LA CLARA","TIPO":"Caserio","CODANE":"05240","CLASE":"CAS","CODSITIO":"011","TEMP":"05240011"}},{"type":"Feature","id":99,"geometry":{"type":"Point","coordinates":[-75.668573613680493,6.4608760205045739]},"properties":{"FID":99,"CORREGIM_I":2105,"NAME":"POCAL","TIPO":"Caserio","CODANE":"05656","CLASE":"CAS","CODSITIO":" ","TEMP":"05656"}},{"type":"Feature","id":100,"geometry":{"type":"Point","coordinates":[-75.474063673142993,6.25172821828974]},"properties":{"FID":100,"CORREGIM_I":2106,"NAME":"PIEDRAS BLANCAS","TIPO":"Inspección","CODANE":"05318","CLASE":"IP","CODSITIO":"004","TEMP":"05318004"}},{"type":"Feature","id":101,"geometry":{"type":"Point","coordinates":[-75.322854812905788,6.2078178389646297]},"properties":{"FID":101,"CORREGIM_I":2107,"NAME":"ASUNCION","TIPO":"Caserio","CODANE":"05440","CLASE":"CAS","CODSITIO":" ","TEMP":"05440"}},{"type":"Feature","id":102,"geometry":{"type":"Point","coordinates":[-75.403507246164679,6.2694124467808496]},"properties":{"FID":102,"CORREGIM_I":2108,"NAME":"ORGANO","TIPO":"Caserio","CODANE":"05318","CLASE":"CAS","CODSITIO":" ","TEMP":"05318"}},{"type":"Feature","id":103,"geometry":{"type":"Point","coordinates":[-75.385490008105208,6.3190978380941427]},"properties":{"FID":103,"CORREGIM_I":2109,"NAME":"GUAMITO","TIPO":"Caserio","CODANE":"05674","CLASE":"CAS","CODSITIO":" ","TEMP":"05674"}},{"type":"Feature","id":104,"geometry":{"type":"Point","coordinates":[-75.605022895551528,7.3177022122211319]},"properties":{"FID":104,"CORREGIM_I":2110,"NAME":"SANTA RITA","TIPO":"Caserio","CODANE":"05361","CLASE":"CAS","CODSITIO":"007","TEMP":"05361007"}},{"type":"Feature","id":105,"geometry":{"type":"Point","coordinates":[-75.862663305665464,7.2141753678347325]},"properties":{"FID":105,"CORREGIM_I":2111,"NAME":"EL MEDIO","TIPO":"Caserio","CODANE":"05361","CLASE":"CAS","CODSITIO":"015","TEMP":"05361015"}},{"type":"Feature","id":106,"geometry":{"type":"Point","coordinates":[-75.543215365709784,6.6450633550999436]},"properties":{"FID":106,"CORREGIM_I":2112,"NAME":"POTRERO GRANDE","TIPO":"Caserio","CODANE":"05264","CLASE":"CAS","CODSITIO":" ","TEMP":"05264"}},{"type":"Feature","id":107,"geometry":{"type":"Point","coordinates":[-75.537694830634265,6.6092375741990654]},"properties":{"FID":107,"CORREGIM_I":2113,"NAME":"TORURO","TIPO":"Caserio","CODANE":"05264","CLASE":"CAS","CODSITIO":" ","TEMP":"05264"}},{"type":"Feature","id":108,"geometry":{"type":"Point","coordinates":[-75.273375940084478,7.0569300793037257]},"properties":{"FID":108,"CORREGIM_I":2114,"NAME":"LAS BRISAS","TIPO":"Caserio","CODANE":"05134","CLASE":"CAS","CODSITIO":" ","TEMP":"05134"}},{"type":"Feature","id":109,"geometry":{"type":"Point","coordinates":[-75.035024362598918,6.6893856005313479]},"properties":{"FID":109,"CORREGIM_I":2115,"NAME":"CACHUMBAL","TIPO":"Caserio","CODANE":"05890","CLASE":"CAS","CODSITIO":" ","TEMP":"05890"}},{"type":"Feature","id":110,"geometry":{"type":"Point","coordinates":[-75.107964947215734,6.4244526484691935]},"properties":{"FID":110,"CORREGIM_I":2116,"NAME":"LAS ANIMAS","TIPO":"Caserio","CODANE":"05690","CLASE":"CAS","CODSITIO":" ","TEMP":"05690"}},{"type":"Feature","id":111,"geometry":{"type":"Point","coordinates":[-75.151761563452283,6.3234470560961418]},"properties":{"FID":111,"CORREGIM_I":2117,"NAME":"SANTA RITA","TIPO":"Caserio","CODANE":"05021","CLASE":"CAS","CODSITIO":" ","TEMP":"05021"}},{"type":"Feature","id":112,"geometry":{"type":"Point","coordinates":[-75.160119743955732,6.4441088493022338]},"properties":{"FID":112,"CORREGIM_I":2118,"NAME":"SAN PEDRO","TIPO":"Caserio","CODANE":"05690","CLASE":"CAS","CODSITIO":" ","TEMP":"05690"}},{"type":"Feature","id":113,"geometry":{"type":"Point","coordinates":[-74.833561568709385,6.4394962343123581]},"properties":{"FID":113,"CORREGIM_I":2119,"NAME":"RIO SAN PEDRO","TIPO":"Caserio","CODANE":"05670","CLASE":"CAS","CODSITIO":" ","TEMP":"05670"}},{"type":"Feature","id":114,"geometry":{"type":"Point","coordinates":[-74.910129820502959,6.2869355752242502]},"properties":{"FID":114,"CORREGIM_I":2120,"NAME":"LAS PLAYAS","TIPO":"Caserio","CODANE":"05667","CLASE":"CAS","CODSITIO":" ","TEMP":"05667"}},{"type":"Feature","id":115,"geometry":{"type":"Point","coordinates":[-74.978611514787573,6.6835154827698924]},"properties":{"FID":115,"CORREGIM_I":2121,"NAME":"JERGONA","TIPO":"Caserio","CODANE":"05890","CLASE":"CAS","CODSITIO":" ","TEMP":"05890"}},{"type":"Feature","id":116,"geometry":{"type":"Point","coordinates":[-74.968587128201193,6.4979764932723274]},"properties":{"FID":116,"CORREGIM_I":2122,"NAME":"GUACAS","TIPO":"Caserio","CODANE":"05670","CLASE":"CAS","CODSITIO":" ","TEMP":"05670"}},{"type":"Feature","id":117,"geometry":{"type":"Point","coordinates":[-75.026819085507867,6.9459726782601408]},"properties":{"FID":117,"CORREGIM_I":2123,"NAME":"SALAZAR","TIPO":"Caserio","CODANE":"05031","CLASE":"CAS","CODSITIO":" ","TEMP":"05031"}},{"type":"Feature","id":118,"geometry":{"type":"Point","coordinates":[-75.13868376367104,6.8019681201355002]},"properties":{"FID":118,"CORREGIM_I":2124,"NAME":"EL MANGO","TIPO":"Caserio","CODANE":"05310","CLASE":"CAS","CODSITIO":" ","TEMP":"05310"}},{"type":"Feature","id":119,"geometry":{"type":"Point","coordinates":[-75.090908345003768,6.9433541508242183]},"properties":{"FID":119,"CORREGIM_I":2125,"NAME":"MINA","TIPO":"Caserio","CODANE":"05031","CLASE":"CAS","CODSITIO":" ","TEMP":"05031"}},{"type":"Feature","id":120,"geometry":{"type":"Point","coordinates":[-75.045505341951596,7.0001816001778128]},"properties":{"FID":120,"CORREGIM_I":2126,"NAME":"LA MANGUITA","TIPO":"Caserio","CODANE":"05031","CLASE":"CAS","CODSITIO":" ","TEMP":"05031"}},{"type":"Feature","id":121,"geometry":{"type":"Point","coordinates":[-74.909317144090465,6.9074952686917586]},"properties":{"FID":121,"CORREGIM_I":2127,"NAME":"RIO MONOS","TIPO":"Caserio","CODANE":"05031","CLASE":"CAS","CODSITIO":" ","TEMP":"05031"}},{"type":"Feature","id":122,"geometry":{"type":"Point","coordinates":[-74.874627523604858,6.8794170695577312]},"properties":{"FID":122,"CORREGIM_I":2128,"NAME":"LA FLORESTA","TIPO":"Caserio","CODANE":"05031","CLASE":"CAS","CODSITIO":" ","TEMP":"05031"}},{"type":"Feature","id":123,"geometry":{"type":"Point","coordinates":[-74.641726338430914,6.865415270569903]},"properties":{"FID":123,"CORREGIM_I":2129,"NAME":"RIO PESCADO","TIPO":"Caserio","CODANE":"05858","CLASE":"CAS","CODSITIO":" ","TEMP":"05858"}},{"type":"Feature","id":124,"geometry":{"type":"Point","coordinates":[-74.653868668585304,7.1041071723302833]},"properties":{"FID":124,"CORREGIM_I":2130,"NAME":"LA CLANURADA","TIPO":"Caserio","CODANE":"05736","CLASE":"CAS","CODSITIO":" ","TEMP":"05736"}},{"type":"Feature","id":125,"geometry":{"type":"Point","coordinates":[-74.400006631093731,6.724631821736188]},"properties":{"FID":125,"CORREGIM_I":2444,"NAME":"BODEGAS","TIPO":"Caserio","CODANE":"05893","CLASE":"CAS","CODSITIO":" ","TEMP":"05893"}},{"type":"Feature","id":126,"geometry":{"type":"Point","coordinates":[-74.270244078604634,6.8967573064731607]},"properties":{"FID":126,"CORREGIM_I":2445,"NAME":"CANO GLORIA","TIPO":"Caserio","CODANE":"05893","CLASE":"CAS","CODSITIO":" ","TEMP":"05893"}},{"type":"Feature","id":127,"geometry":{"type":"Point","coordinates":[-74.078042715429632,6.926535215952458]},"properties":{"FID":127,"CORREGIM_I":2460,"NAME":"CIENAGA SARDINATA","TIPO":"Caserio","CODANE":"05893","CLASE":"CAS","CODSITIO":"001","TEMP":"05893001"}},{"type":"Feature","id":128,"geometry":{"type":"Point","coordinates":[-75.665760685816494,6.9225098428988376]},"properties":{"FID":128,"CORREGIM_I":5377,"NAME":"SAN ANDRES DE CUERQUIA","TIPO":"Cabecera","CODANE":"05647","CLASE":"CM","CODSITIO":"000","TEMP":"05647000"}},{"type":"Feature","id":129,"geometry":{"type":"Point","coordinates":[-75.909901333634366,5.7976441643850913]},"properties":{"FID":129,"CORREGIM_I":5378,"NAME":"HISPANIA","TIPO":"Cabecera","CODANE":"05353","CLASE":"CM","CODSITIO":"000","TEMP":"05353000"}},{"type":"Feature","id":130,"geometry":{"type":"Point","coordinates":[-75.962884429458001,5.9590503659756759]},"properties":{"FID":130,"CORREGIM_I":5379,"NAME":"SALGAR","TIPO":"Cabecera","CODANE":"05642","CLASE":"CM","CODSITIO":"000","TEMP":"05642000"}},{"type":"Feature","id":131,"geometry":{"type":"Point","coordinates":[-75.97086150772121,5.7461808285683116]},"properties":{"FID":131,"CORREGIM_I":5388,"NAME":"BETANIA","TIPO":"Cabecera","CODANE":"05091","CLASE":"CM","CODSITIO":"000","TEMP":"05091000"}},{"type":"Feature","id":132,"geometry":{"type":"Point","coordinates":[-76.014759504157894,5.8599355867168974]},"properties":{"FID":132,"CORREGIM_I":5389,"NAME":"BOLIVAR","TIPO":"Cabecera","CODANE":"05101","CLASE":"CM","CODSITIO":"000","TEMP":"05101000"}},{"type":"Feature","id":133,"geometry":{"type":"Point","coordinates":[-76.87568172215957,6.5916171306062656]},"properties":{"FID":133,"CORREGIM_I":5390,"NAME":"VIGIA DEL FUERTE","TIPO":"Cabecera","CODANE":"05873","CLASE":"CM","CODSITIO":"000","TEMP":"05873000"}},{"type":"Feature","id":134,"geometry":{"type":"Point","coordinates":[-75.980958394262487,6.4145264732017662]},"properties":{"FID":134,"CORREGIM_I":5393,"NAME":"CAICEDO","TIPO":"Cabecera","CODANE":"05125","CLASE":"CM","CODSITIO":"000","TEMP":"05125000"}},{"type":"Feature","id":135,"geometry":{"type":"Point","coordinates":[-76.141099670771325,6.322617424969879]},"properties":{"FID":135,"CORREGIM_I":5394,"NAME":"URRAO","TIPO":"Cabecera","CODANE":"05847","CLASE":"CM","CODSITIO":"000","TEMP":"05847000"}},{"type":"Feature","id":136,"geometry":{"type":"Point","coordinates":[-75.979970819522549,6.1217893605413698]},"properties":{"FID":136,"CORREGIM_I":5395,"NAME":"BETULIA","TIPO":"Cabecera","CODANE":"05093","CLASE":"CM","CODSITIO":"000","TEMP":"05093000"}},{"type":"Feature","id":137,"geometry":{"type":"Point","coordinates":[-76.119609655469404,6.7779626892045348]},"properties":{"FID":137,"CORREGIM_I":5396,"NAME":"FRONTINO","TIPO":"Cabecera","CODANE":"05284","CLASE":"CM","CODSITIO":"000","TEMP":"05284000"}},{"type":"Feature","id":138,"geometry":{"type":"Point","coordinates":[-76.162194775467682,6.910664566842148]},"properties":{"FID":138,"CORREGIM_I":5397,"NAME":"URAMITA","TIPO":"Cabecera","CODANE":"05842","CLASE":"CM","CODSITIO":"000","TEMP":"05842000"}},{"type":"Feature","id":139,"geometry":{"type":"Point","coordinates":[-75.945555347675722,6.6807025596049012]},"properties":{"FID":139,"CORREGIM_I":5398,"NAME":"GIRALDO","TIPO":"Cabecera","CODANE":"05306","CLASE":"CM","CODSITIO":"000","TEMP":"05306000"}},{"type":"Feature","id":140,"geometry":{"type":"Point","coordinates":[-76.052338134749633,6.6384350808611412]},"properties":{"FID":140,"CORREGIM_I":5399,"NAME":"ABRIAQUI","TIPO":"Cabecera","CODANE":"05004","CLASE":"CM","CODSITIO":"000","TEMP":"05004000"}},{"type":"Feature","id":141,"geometry":{"type":"Point","coordinates":[-76.022488142533348,6.7512489792182082]},"properties":{"FID":141,"CORREGIM_I":5400,"NAME":"CANASGORDAS","TIPO":"Cabecera","CODANE":"05138","CLASE":"CM","CODSITIO":"000","TEMP":"05138000"}},{"type":"Feature","id":142,"geometry":{"type":"Point","coordinates":[-75.731014793375266,5.9616649691048629]},"properties":{"FID":142,"CORREGIM_I":5401,"NAME":"VENECIA","TIPO":"Cabecera","CODANE":"05861","CLASE":"CM","CODSITIO":"000","TEMP":"05861000"}},{"type":"Feature","id":143,"geometry":{"type":"Point","coordinates":[-75.718596433980494,5.66356522839365]},"properties":{"FID":143,"CORREGIM_I":5402,"NAME":"TAMESIS","TIPO":"Cabecera","CODANE":"05789","CLASE":"CM","CODSITIO":"000","TEMP":"05789000"}},{"type":"Feature","id":144,"geometry":{"type":"Point","coordinates":[-75.826778020306179,5.5986408619823571]},"properties":{"FID":144,"CORREGIM_I":5407,"NAME":"JARDIN","TIPO":"Cabecera","CODANE":"05364","CLASE":"CM","CODSITIO":"000","TEMP":"05364000"}},{"type":"Feature","id":145,"geometry":{"type":"Point","coordinates":[-75.883395225941072,5.6505304779075116]},"properties":{"FID":145,"CORREGIM_I":5408,"NAME":"ANDES","TIPO":"Cabecera","CODANE":"05034","CLASE":"CM","CODSITIO":"000","TEMP":"05034000"}},{"type":"Feature","id":146,"geometry":{"type":"Point","coordinates":[-75.830742663296704,5.7965838895400079]},"properties":{"FID":146,"CORREGIM_I":5409,"NAME":"PUEBLORRICO","TIPO":"Cabecera","CODANE":"05576","CLASE":"CM","CODSITIO":"000","TEMP":"05576000"}},{"type":"Feature","id":147,"geometry":{"type":"Point","coordinates":[-75.776093599271803,5.7895823992849271]},"properties":{"FID":147,"CORREGIM_I":5410,"NAME":"JERICO","TIPO":"Cabecera","CODANE":"05368","CLASE":"CM","CODSITIO":"000","TEMP":"05368000"}},{"type":"Feature","id":148,"geometry":{"type":"Point","coordinates":[-75.810604476434079,5.8660628525090566]},"properties":{"FID":148,"CORREGIM_I":5411,"NAME":"TARSO","TIPO":"Cabecera","CODANE":"05792","CLASE":"CM","CODSITIO":"000","TEMP":"05792000"}},{"type":"Feature","id":149,"geometry":{"type":"Point","coordinates":[-75.628249674143447,5.5525909995199267]},"properties":{"FID":149,"CORREGIM_I":5412,"NAME":"CARAMANTA","TIPO":"Cabecera","CODANE":"05145","CLASE":"CM","CODSITIO":"000","TEMP":"05145000"}},{"type":"Feature","id":150,"geometry":{"type":"Point","coordinates":[-75.62626917269246,5.6161895555373782]},"properties":{"FID":150,"CORREGIM_I":5418,"NAME":"VALPARAISO","TIPO":"Cabecera","CODANE":"05856","CLASE":"CM","CODSITIO":"000","TEMP":"05856000"}},{"type":"Feature","id":151,"geometry":{"type":"Point","coordinates":[-75.663041673280702,5.9267829352689789]},"properties":{"FID":151,"CORREGIM_I":5419,"NAME":"FREDONIA","TIPO":"Cabecera","CODANE":"05282","CLASE":"CM","CODSITIO":"000","TEMP":"05282000"}},{"type":"Feature","id":152,"geometry":{"type":"Point","coordinates":[-75.558348503385716,5.87362006567768]},"properties":{"FID":152,"CORREGIM_I":5420,"NAME":"SANTA BARBARA","TIPO":"Cabecera","CODANE":"05679","CLASE":"CM","CODSITIO":"000","TEMP":"05679000"}},{"type":"Feature","id":153,"geometry":{"type":"Point","coordinates":[-75.517763591034992,5.9478803378455884]},"properties":{"FID":153,"CORREGIM_I":5421,"NAME":"MONTEBELLO","TIPO":"Cabecera","CODANE":"05467","CLASE":"CM","CODSITIO":"000","TEMP":"05467000"}},{"type":"Feature","id":154,"geometry":{"type":"Point","coordinates":[-75.694285038515616,6.0462989897281787]},"properties":{"FID":154,"CORREGIM_I":5422,"NAME":"AMAGA","TIPO":"Cabecera","CODANE":"05030","CLASE":"CM","CODSITIO":"000","TEMP":"05030000"}},{"type":"Feature","id":155,"geometry":{"type":"Point","coordinates":[-75.759977286488237,6.3304517179196091]},"properties":{"FID":155,"CORREGIM_I":5423,"NAME":"EBEJICO","TIPO":"Cabecera","CODANE":"05240","CLASE":"CM","CODSITIO":"000","TEMP":"05240000"}},{"type":"Feature","id":156,"geometry":{"type":"Point","coordinates":[-75.85010253617159,6.3128619499712677]},"properties":{"FID":156,"CORREGIM_I":5424,"NAME":"ANZA","TIPO":"Cabecera","CODANE":"05044","CLASE":"CM","CODSITIO":"000","TEMP":"05044000"}},{"type":"Feature","id":157,"geometry":{"type":"Point","coordinates":[-75.903003301573079,6.055164943093315]},"properties":{"FID":157,"CORREGIM_I":5425,"NAME":"CONCORDIA","TIPO":"Cabecera","CODANE":"05209","CLASE":"CM","CODSITIO":"000","TEMP":"05209000"}},{"type":"Feature","id":158,"geometry":{"type":"Point","coordinates":[-75.710073125930691,6.1167655945066111]},"properties":{"FID":158,"CORREGIM_I":5426,"NAME":"ANGELOPOLIS","TIPO":"Cabecera","CODANE":"05036","CLASE":"CM","CODSITIO":"000","TEMP":"05036000"}},{"type":"Feature","id":159,"geometry":{"type":"Point","coordinates":[-75.783634335687964,6.0706296015770951]},"properties":{"FID":159,"CORREGIM_I":5427,"NAME":"TITIRIBI","TIPO":"Cabecera","CODANE":"05809","CLASE":"CM","CODSITIO":"000","TEMP":"05809000"}},{"type":"Feature","id":160,"geometry":{"type":"Point","coordinates":[-75.783955882483752,6.1636189485516244]},"properties":{"FID":160,"CORREGIM_I":5428,"NAME":"ARMENIA","TIPO":"Cabecera","CODANE":"05059","CLASE":"CM","CODSITIO":"000","TEMP":"05059000"}},{"type":"Feature","id":161,"geometry":{"type":"Point","coordinates":[-75.724542136437776,6.2141526062626999]},"properties":{"FID":161,"CORREGIM_I":5429,"NAME":"HELICONIA","TIPO":"Cabecera","CODANE":"05347","CLASE":"CM","CODSITIO":"000","TEMP":"05347000"}},{"type":"Feature","id":162,"geometry":{"type":"Point","coordinates":[-75.801976472795516,6.8518079029476402]},"properties":{"FID":162,"CORREGIM_I":5430,"NAME":"SABANALARGA","TIPO":"Cabecera","CODANE":"05628","CLASE":"CM","CODSITIO":"000","TEMP":"05628000"}},{"type":"Feature","id":163,"geometry":{"type":"Point","coordinates":[-75.820382485048171,6.5596396172023725]},"properties":{"FID":163,"CORREGIM_I":5431,"NAME":"ANTIOQUIA","TIPO":"Cabecera","CODANE":"05042","CLASE":"CM","CODSITIO":"000","TEMP":"05042000"}},{"type":"Feature","id":164,"geometry":{"type":"Point","coordinates":[-75.903372991773722,6.7186302333235632]},"properties":{"FID":164,"CORREGIM_I":5432,"NAME":"BURITICA","TIPO":"Cabecera","CODANE":"05113","CLASE":"CM","CODSITIO":"000","TEMP":"05113000"}},{"type":"Feature","id":165,"geometry":{"type":"Point","coordinates":[-75.806266125343981,6.6872933980829687]},"properties":{"FID":165,"CORREGIM_I":5433,"NAME":"LIBORINA","TIPO":"Cabecera","CODANE":"05411","CLASE":"CM","CODSITIO":"000","TEMP":"05411000"}},{"type":"Feature","id":166,"geometry":{"type":"Point","coordinates":[-75.742799839208431,6.5076045235215068]},"properties":{"FID":166,"CORREGIM_I":5434,"NAME":"SOPETRAN","TIPO":"Cabecera","CODANE":"05761","CLASE":"CM","CODSITIO":"000","TEMP":"05761000"}},{"type":"Feature","id":167,"geometry":{"type":"Point","coordinates":[-75.716397268134713,6.4473017141356541]},"properties":{"FID":167,"CORREGIM_I":5435,"NAME":"SAN JERONIMO","TIPO":"Cabecera","CODANE":"05656","CLASE":"CM","CODSITIO":"000","TEMP":"05656000"}},{"type":"Feature","id":168,"geometry":{"type":"Point","coordinates":[-75.796481316130738,6.6291287650160138]},"properties":{"FID":168,"CORREGIM_I":5436,"NAME":"OLAYA","TIPO":"Cabecera","CODANE":"05501","CLASE":"CM","CODSITIO":"000","TEMP":"05501000"}},{"type":"Feature","id":169,"geometry":{"type":"Point","coordinates":[-75.59196785066213,6.2442882890898073]},"properties":{"FID":169,"CORREGIM_I":5437,"NAME":"MEDELLIN","TIPO":"Cabecera","CODANE":"05001","CLASE":"CM","CODSITIO":"000","TEMP":"05001000"}},{"type":"Feature","id":170,"geometry":{"type":"Point","coordinates":[-75.605343882635438,6.1509042305954473]},"properties":{"FID":170,"CORREGIM_I":5438,"NAME":"SABANETA","TIPO":"Cabecera","CODANE":"05631","CLASE":"CM","CODSITIO":"000","TEMP":"05631000"}},{"type":"Feature","id":171,"geometry":{"type":"Point","coordinates":[-75.62504603685629,6.0940477327281579]},"properties":{"FID":171,"CORREGIM_I":5439,"NAME":"CALDAS","TIPO":"Cabecera","CODANE":"05129","CLASE":"CM","CODSITIO":"000","TEMP":"05129000"}},{"type":"Feature","id":172,"geometry":{"type":"Point","coordinates":[-75.636054744833146,6.1596690203071276]},"properties":{"FID":172,"CORREGIM_I":5440,"NAME":"LA ESTRELLA","TIPO":"Cabecera","CODANE":"05380","CLASE":"CM","CODSITIO":"000","TEMP":"05380000"}},{"type":"Feature","id":173,"geometry":{"type":"Point","coordinates":[-75.608198797156462,6.1810194274845855]},"properties":{"FID":173,"CORREGIM_I":5441,"NAME":"ITAGUI","TIPO":"Cabecera","CODANE":"05360","CLASE":"CM","CODSITIO":"000","TEMP":"05360000"}},{"type":"Feature","id":174,"geometry":{"type":"Point","coordinates":[-75.498886835962878,6.0604043537625305]},"properties":{"FID":174,"CORREGIM_I":5442,"NAME":"EL RETIRO","TIPO":"Cabecera","CODANE":"05607","CLASE":"CM","CODSITIO":"000","TEMP":"05607000"}},{"type":"Feature","id":175,"geometry":{"type":"Point","coordinates":[-75.573275126105742,6.1742657816356692]},"properties":{"FID":175,"CORREGIM_I":5443,"NAME":"ENVIGADO","TIPO":"Cabecera","CODANE":"05266","CLASE":"CM","CODSITIO":"000","TEMP":"05266000"}},{"type":"Feature","id":176,"geometry":{"type":"Point","coordinates":[-75.667542465452769,6.6067704633372335]},"properties":{"FID":176,"CORREGIM_I":5444,"NAME":"BELMIRA","TIPO":"Cabecera","CODANE":"05086","CLASE":"CM","CODSITIO":"000","TEMP":"05086000"}},{"type":"Feature","id":177,"geometry":{"type":"Point","coordinates":[-75.681280849509406,6.8329452609026031]},"properties":{"FID":177,"CORREGIM_I":5445,"NAME":"SAN JOSE DE LA MONTANA","TIPO":"Cabecera","CODANE":"05658","CLASE":"CM","CODSITIO":"000","TEMP":"05658000"}},{"type":"Feature","id":178,"geometry":{"type":"Point","coordinates":[-75.508354599611593,6.3470154597549788]},"properties":{"FID":178,"CORREGIM_I":5446,"NAME":"COPACABANA","TIPO":"Cabecera","CODANE":"05212","CLASE":"CM","CODSITIO":"000","TEMP":"05212000"}},{"type":"Feature","id":179,"geometry":{"type":"Point","coordinates":[-75.556964641621803,6.3406689195033952]},"properties":{"FID":179,"CORREGIM_I":5447,"NAME":"BELLO","TIPO":"Cabecera","CODANE":"05088","CLASE":"CM","CODSITIO":"000","TEMP":"05088000"}},{"type":"Feature","id":180,"geometry":{"type":"Point","coordinates":[-75.554732849137977,6.4665790677661752]},"properties":{"FID":180,"CORREGIM_I":5448,"NAME":"SAN PEDRO","TIPO":"Cabecera","CODANE":"05664","CLASE":"CM","CODSITIO":"000","TEMP":"05664000"}},{"type":"Feature","id":181,"geometry":{"type":"Point","coordinates":[-75.51162295259482,6.558600359167376]},"properties":{"FID":181,"CORREGIM_I":5449,"NAME":"ENTRERIOS","TIPO":"Cabecera","CODANE":"05264","CLASE":"CM","CODSITIO":"000","TEMP":"05264000"}},{"type":"Feature","id":182,"geometry":{"type":"Point","coordinates":[-76.623001690730447,7.8798202433594309]},"properties":{"FID":182,"CORREGIM_I":5451,"NAME":"APARTADO","TIPO":"Cabecera","CODANE":"05045","CLASE":"CM","CODSITIO":"000","TEMP":"05045000"}},{"type":"Feature","id":183,"geometry":{"type":"Point","coordinates":[-76.420819239418563,7.2513643517610156]},"properties":{"FID":183,"CORREGIM_I":5454,"NAME":"MUTATA","TIPO":"Cabecera","CODANE":"05480","CLASE":"CM","CODSITIO":"000","TEMP":"05480000"}},{"type":"Feature","id":184,"geometry":{"type":"Point","coordinates":[-76.731717756141379,6.9675871061657411]},"properties":{"FID":184,"CORREGIM_I":5455,"NAME":"MURINDO","TIPO":"Cabecera","CODANE":"05475","CLASE":"CM","CODSITIO":"000","TEMP":"05475000"}},{"type":"Feature","id":185,"geometry":{"type":"Point","coordinates":[-76.258207391376985,7.0030798340880018]},"properties":{"FID":185,"CORREGIM_I":5456,"NAME":"DABEIBA","TIPO":"Cabecera","CODANE":"05234","CLASE":"CM","CODSITIO":"000","TEMP":"05234000"}},{"type":"Feature","id":186,"geometry":{"type":"Point","coordinates":[-76.667293072365865,7.6879299192242643]},"properties":{"FID":186,"CORREGIM_I":5457,"NAME":"CHIGORODO","TIPO":"Cabecera","CODANE":"05172","CLASE":"CM","CODSITIO":"000","TEMP":"05172000"}},{"type":"Feature","id":187,"geometry":{"type":"Point","coordinates":[-76.644086454326313,7.7572912368270002]},"properties":{"FID":187,"CORREGIM_I":5458,"NAME":"CAREPA","TIPO":"Cabecera","CODANE":"05147","CLASE":"CM","CODSITIO":"000","TEMP":"05147000"}},{"type":"Feature","id":188,"geometry":{"type":"Point","coordinates":[-76.717166288548242,8.0919937564280815]},"properties":{"FID":188,"CORREGIM_I":5459,"NAME":"TURBO","TIPO":"Cabecera","CODANE":"05837","CLASE":"CM","CODSITIO":"000","TEMP":"05837000"}},{"type":"Feature","id":189,"geometry":{"type":"Point","coordinates":[-76.778590058572888,8.4269741664435145]},"properties":{"FID":189,"CORREGIM_I":5462,"NAME":"NECOCLI","TIPO":"Cabecera","CODANE":"05490","CLASE":"CM","CODSITIO":"000","TEMP":"05490000"}},{"type":"Feature","id":190,"geometry":{"type":"Point","coordinates":[-76.374273040792332,8.2553196095539523]},"properties":{"FID":190,"CORREGIM_I":5463,"NAME":"SAN PEDRO DE URABA","TIPO":"Cabecera","CODANE":"05665","CLASE":"CM","CODSITIO":"000","TEMP":"05665000"}},{"type":"Feature","id":191,"geometry":{"type":"Point","coordinates":[-76.431883106233968,8.8544427900299425]},"properties":{"FID":191,"CORREGIM_I":5464,"NAME":"ARBOLETES","TIPO":"Cabecera","CODANE":"05051","CLASE":"CM","CODSITIO":"000","TEMP":"05051000"}},{"type":"Feature","id":192,"geometry":{"type":"Point","coordinates":[-76.521309450829037,8.7774085996525244]},"properties":{"FID":192,"CORREGIM_I":5465,"NAME":"SAN JUAN DE URABA","TIPO":"Cabecera","CODANE":"05659","CLASE":"CM","CODSITIO":"000","TEMP":"05659000"}},{"type":"Feature","id":193,"geometry":{"type":"Point","coordinates":[-75.901076284218135,7.0366290976313355]},"properties":{"FID":193,"CORREGIM_I":5470,"NAME":"PEQUE","TIPO":"Cabecera","CODANE":"05543","CLASE":"CM","CODSITIO":"000","TEMP":"05543000"}},{"type":"Feature","id":194,"geometry":{"type":"Point","coordinates":[-75.762481302928421,7.171297250645349]},"properties":{"FID":194,"CORREGIM_I":5472,"NAME":"ITUANGO","TIPO":"Cabecera","CODANE":"05361","CLASE":"CM","CODSITIO":"000","TEMP":"05361000"}},{"type":"Feature","id":195,"geometry":{"type":"Point","coordinates":[-75.689486072897395,7.0152412726643449]},"properties":{"FID":195,"CORREGIM_I":5473,"NAME":"TOLEDO","TIPO":"Cabecera","CODANE":"05819","CLASE":"CM","CODSITIO":"000","TEMP":"05819000"}},{"type":"Feature","id":196,"geometry":{"type":"Point","coordinates":[-75.544995157731208,7.1110984671775039]},"properties":{"FID":196,"CORREGIM_I":5474,"NAME":"BRICENO","TIPO":"Cabecera","CODANE":"05107","CLASE":"CM","CODSITIO":"000","TEMP":"05107000"}},{"type":"Feature","id":197,"geometry":{"type":"Point","coordinates":[-75.447180948058758,6.3800320406849931]},"properties":{"FID":197,"CORREGIM_I":5495,"NAME":"GIRARDOTA","TIPO":"Cabecera","CODANE":"05308","CLASE":"CM","CODSITIO":"000","TEMP":"05308000"}},{"type":"Feature","id":198,"geometry":{"type":"Point","coordinates":[-75.35319466237506,5.9760295988554928]},"properties":{"FID":198,"CORREGIM_I":5496,"NAME":"LA UNION","TIPO":"Cabecera","CODANE":"05400","CLASE":"CM","CODSITIO":"000","TEMP":"05400000"}},{"type":"Feature","id":199,"geometry":{"type":"Point","coordinates":[-75.420457735140445,5.7920353963110109]},"properties":{"FID":199,"CORREGIM_I":5501,"NAME":"ABEJORRAL","TIPO":"Cabecera","CODANE":"05002","CLASE":"CM","CODSITIO":"000","TEMP":"05002000"}},{"type":"Feature","id":200,"geometry":{"type":"Point","coordinates":[-75.424443005281375,6.0333016401552735]},"properties":{"FID":200,"CORREGIM_I":5502,"NAME":"LA CEJA","TIPO":"Cabecera","CODANE":"05376","CLASE":"CM","CODSITIO":"000","TEMP":"05376000"}},{"type":"Feature","id":201,"geometry":{"type":"Point","coordinates":[-75.429642209900763,6.3003444468413186]},"properties":{"FID":201,"CORREGIM_I":5503,"NAME":"GUARNE","TIPO":"Cabecera","CODANE":"05318","CLASE":"CM","CODSITIO":"000","TEMP":"05318000"}},{"type":"Feature","id":202,"geometry":{"type":"Point","coordinates":[-75.374575828280058,6.1535783013739822]},"properties":{"FID":202,"CORREGIM_I":5504,"NAME":"RIONEGRO","TIPO":"Cabecera","CODANE":"05615","CLASE":"CM","CODSITIO":"000","TEMP":"05615000"}},{"type":"Feature","id":203,"geometry":{"type":"Point","coordinates":[-75.30410368685159,5.711845089932706]},"properties":{"FID":203,"CORREGIM_I":5505,"NAME":"SONSON","TIPO":"Cabecera","CODANE":"05756","CLASE":"CM","CODSITIO":"000","TEMP":"05756000"}},{"type":"Feature","id":204,"geometry":{"type":"Point","coordinates":[-75.171264533429422,5.6076418161061161]},"properties":{"FID":204,"CORREGIM_I":5507,"NAME":"NARINO","TIPO":"Cabecera","CODANE":"05483","CLASE":"CM","CODSITIO":"000","TEMP":"05483000"}},{"type":"Feature","id":205,"geometry":{"type":"Point","coordinates":[-75.329319918734782,6.2865724821392464]},"properties":{"FID":205,"CORREGIM_I":5508,"NAME":"SAN VICENTE","TIPO":"Cabecera","CODANE":"05674","CLASE":"CM","CODSITIO":"000","TEMP":"05674000"}},{"type":"Feature","id":206,"geometry":{"type":"Point","coordinates":[-75.333884009543084,6.0800403203696325]},"properties":{"FID":206,"CORREGIM_I":5509,"NAME":"CARMEN DE VIVORAL","TIPO":"Cabecera","CODANE":"05148","CLASE":"CM","CODSITIO":"000","TEMP":"05148000"}},{"type":"Feature","id":207,"geometry":{"type":"Point","coordinates":[-75.332754567269433,6.1728167994174683]},"properties":{"FID":207,"CORREGIM_I":5510,"NAME":"MARINILLA","TIPO":"Cabecera","CODANE":"05440","CLASE":"CM","CODSITIO":"000","TEMP":"05440000"}},{"type":"Feature","id":208,"geometry":{"type":"Point","coordinates":[-75.183138905888384,6.0596108373989601]},"properties":{"FID":208,"CORREGIM_I":5511,"NAME":"COCORNA","TIPO":"Cabecera","CODANE":"05197","CLASE":"CM","CODSITIO":"000","TEMP":"05197000"}},{"type":"Feature","id":209,"geometry":{"type":"Point","coordinates":[-75.239132546974048,6.2175457713100375]},"properties":{"FID":209,"CORREGIM_I":5512,"NAME":"PENOL","TIPO":"Cabecera","CODANE":"05541","CLASE":"CM","CODSITIO":"000","TEMP":"05541000"}},{"type":"Feature","id":210,"geometry":{"type":"Point","coordinates":[-75.261977318544083,6.1431622273349431]},"properties":{"FID":210,"CORREGIM_I":5513,"NAME":"SANTUARIO","TIPO":"Cabecera","CODANE":"05697","CLASE":"CM","CODSITIO":"000","TEMP":"05697000"}},{"type":"Feature","id":211,"geometry":{"type":"Point","coordinates":[-75.183878820383967,6.1431844016630244]},"properties":{"FID":211,"CORREGIM_I":5514,"NAME":"GRANADA","TIPO":"Cabecera","CODANE":"05313","CLASE":"CM","CODSITIO":"000","TEMP":"05313000"}},{"type":"Feature","id":212,"geometry":{"type":"Point","coordinates":[-75.322474579911159,6.4346900035349472]},"properties":{"FID":212,"CORREGIM_I":5515,"NAME":"BARBOSA","TIPO":"Cabecera","CODANE":"05079","CLASE":"CM","CODSITIO":"000","TEMP":"05079000"}},{"type":"Feature","id":213,"geometry":{"type":"Point","coordinates":[-75.41228384003027,6.9595466555355703]},"properties":{"FID":213,"CORREGIM_I":5516,"NAME":"YARUMAL","TIPO":"Cabecera","CODANE":"05887","CLASE":"CM","CODSITIO":"000","TEMP":"05887000"}},{"type":"Feature","id":214,"geometry":{"type":"Point","coordinates":[-75.454936042442171,6.6432100397214651]},"properties":{"FID":214,"CORREGIM_I":5517,"NAME":"SANTA ROSA DE OSOS","TIPO":"Cabecera","CODANE":"05686","CLASE":"CM","CODSITIO":"000","TEMP":"05686000"}},{"type":"Feature","id":215,"geometry":{"type":"Point","coordinates":[-75.392295528720524,6.4827088853008918]},"properties":{"FID":215,"CORREGIM_I":5518,"NAME":"DON MATIAS","TIPO":"Cabecera","CODANE":"05237","CLASE":"CM","CODSITIO":"000","TEMP":"05237000"}},{"type":"Feature","id":216,"geometry":{"type":"Point","coordinates":[-75.331113385357938,6.8806749044352777]},"properties":{"FID":216,"CORREGIM_I":5519,"NAME":"ANGOSTURA","TIPO":"Cabecera","CODANE":"05038","CLASE":"CM","CODSITIO":"000","TEMP":"05038000"}},{"type":"Feature","id":217,"geometry":{"type":"Point","coordinates":[-75.437886788634387,7.1582419320400454]},"properties":{"FID":217,"CORREGIM_I":5521,"NAME":"VALDIVIA","TIPO":"Cabecera","CODANE":"05854","CLASE":"CM","CODSITIO":"000","TEMP":"05854000"}},{"type":"Feature","id":218,"geometry":{"type":"Point","coordinates":[-75.333936695036982,7.5784105960075099]},"properties":{"FID":218,"CORREGIM_I":5522,"NAME":"CACERES","TIPO":"Cabecera","CODANE":"05120","CLASE":"CM","CODSITIO":"000","TEMP":"05120000"}},{"type":"Feature","id":219,"geometry":{"type":"Point","coordinates":[-75.388316345433523,7.5814982228903718]},"properties":{"FID":219,"CORREGIM_I":5523,"NAME":"TARAZA","TIPO":"Cabecera","CODANE":"05790","CLASE":"CM","CODSITIO":"000","TEMP":"05790000"}},{"type":"Feature","id":220,"geometry":{"type":"Point","coordinates":[-75.222627652653586,6.8156664661121464]},"properties":{"FID":220,"CORREGIM_I":5524,"NAME":"GUADALUPE","TIPO":"Cabecera","CODANE":"05315","CLASE":"CM","CODSITIO":"000","TEMP":"05315000"}},{"type":"Feature","id":221,"geometry":{"type":"Point","coordinates":[-75.256857591955026,6.3979231452399805]},"properties":{"FID":221,"CORREGIM_I":5525,"NAME":"CONCEPCION","TIPO":"Cabecera","CODANE":"05206","CLASE":"CM","CODSITIO":"000","TEMP":"05206000"}},{"type":"Feature","id":222,"geometry":{"type":"Point","coordinates":[-75.278487262172334,6.7248341674200427]},"properties":{"FID":222,"CORREGIM_I":5526,"NAME":"CAROLINA","TIPO":"Cabecera","CODANE":"05150","CLASE":"CM","CODSITIO":"000","TEMP":"05150000"}},{"type":"Feature","id":223,"geometry":{"type":"Point","coordinates":[-75.159188332968,6.4695068891996277]},"properties":{"FID":223,"CORREGIM_I":5527,"NAME":"SANTO DOMINGO","TIPO":"Cabecera","CODANE":"05690","CLASE":"CM","CODSITIO":"000","TEMP":"05690000"}},{"type":"Feature","id":224,"geometry":{"type":"Point","coordinates":[-75.209955511667474,6.6764303485032741]},"properties":{"FID":224,"CORREGIM_I":5528,"NAME":"GOMEZ PLATA","TIPO":"Cabecera","CODANE":"05310","CLASE":"CM","CODSITIO":"000","TEMP":"05310000"}},{"type":"Feature","id":225,"geometry":{"type":"Point","coordinates":[-75.290990094234559,6.9780075545785198]},"properties":{"FID":225,"CORREGIM_I":5529,"NAME":"CAMPAMENTO","TIPO":"Cabecera","CODANE":"05134","CLASE":"CM","CODSITIO":"000","TEMP":"05134000"}},{"type":"Feature","id":226,"geometry":{"type":"Point","coordinates":[-75.186421463223397,7.9844553004544734]},"properties":{"FID":226,"CORREGIM_I":5530,"NAME":"CAUCASIA","TIPO":"Cabecera","CODANE":"05154","CLASE":"CM","CODSITIO":"000","TEMP":"05154000"}},{"type":"Feature","id":227,"geometry":{"type":"Point","coordinates":[-75.025585745328783,6.3080953833977356]},"properties":{"FID":227,"CORREGIM_I":5531,"NAME":"SAN RAFAEL","TIPO":"Cabecera","CODANE":"05667","CLASE":"CM","CODSITIO":"000","TEMP":"05667000"}},{"type":"Feature","id":228,"geometry":{"type":"Point","coordinates":[-74.985645432341286,6.187326649892003]},"properties":{"FID":228,"CORREGIM_I":5532,"NAME":"SAN CARLOS","TIPO":"Cabecera","CODANE":"05649","CLASE":"CM","CODSITIO":"000","TEMP":"05649000"}},{"type":"Feature","id":229,"geometry":{"type":"Point","coordinates":[-75.092966341324086,5.9608108041161278]},"properties":{"FID":229,"CORREGIM_I":5536,"NAME":"SAN FRANCISCO","TIPO":"Cabecera","CODANE":"05652","CLASE":"CM","CODSITIO":"000","TEMP":"05652000"}},{"type":"Feature","id":230,"geometry":{"type":"Point","coordinates":[-75.134833372063397,5.73231554141638]},"properties":{"FID":230,"CORREGIM_I":5537,"NAME":"ARGELIA","TIPO":"Cabecera","CODANE":"05055","CLASE":"CM","CODSITIO":"000","TEMP":"05055000"}},{"type":"Feature","id":231,"geometry":{"type":"Point","coordinates":[-75.150152137252107,6.2344231551774838]},"properties":{"FID":231,"CORREGIM_I":5538,"NAME":"GUATAPE","TIPO":"Cabecera","CODANE":"05321","CLASE":"CM","CODSITIO":"000","TEMP":"05321000"}},{"type":"Feature","id":232,"geometry":{"type":"Point","coordinates":[-74.989757555807557,6.043839558316078]},"properties":{"FID":232,"CORREGIM_I":5539,"NAME":"SAN LUIS","TIPO":"Cabecera","CODANE":"05660","CLASE":"CM","CODSITIO":"000","TEMP":"05660000"}},{"type":"Feature","id":233,"geometry":{"type":"Point","coordinates":[-74.646488424071052,5.8784068818689352]},"properties":{"FID":233,"CORREGIM_I":5544,"NAME":"PUERTO TRIUNFO","TIPO":"Cabecera","CODANE":"05591","CLASE":"CM","CODSITIO":"000","TEMP":"05591000"}},{"type":"Feature","id":234,"geometry":{"type":"Point","coordinates":[-75.006147192978901,6.5912611309967604]},"properties":{"FID":234,"CORREGIM_I":5545,"NAME":"YOLOMBO","TIPO":"Cabecera","CODANE":"05890","CLASE":"CM","CODSITIO":"000","TEMP":"05890000"}},{"type":"Feature","id":235,"geometry":{"type":"Point","coordinates":[-75.076241722383827,6.5451083296034192]},"properties":{"FID":235,"CORREGIM_I":5546,"NAME":"CISNEROS","TIPO":"Cabecera","CODANE":"05190","CLASE":"CM","CODSITIO":"000","TEMP":"05190000"}},{"type":"Feature","id":236,"geometry":{"type":"Point","coordinates":[-75.125837914823137,6.3674883772035713]},"properties":{"FID":236,"CORREGIM_I":5547,"NAME":"ALEJANDRIA","TIPO":"Cabecera","CODANE":"05021","CLASE":"CM","CODSITIO":"000","TEMP":"05021000"}},{"type":"Feature","id":237,"geometry":{"type":"Point","coordinates":[-75.015365311925464,6.4819975734900179]},"properties":{"FID":237,"CORREGIM_I":5548,"NAME":"SAN ROQUE","TIPO":"Cabecera","CODANE":"05670","CLASE":"CM","CODSITIO":"000","TEMP":"05670000"}},{"type":"Feature","id":238,"geometry":{"type":"Point","coordinates":[-75.141116636330409,7.0687944692687426]},"properties":{"FID":238,"CORREGIM_I":5549,"NAME":"ANORI","TIPO":"Cabecera","CODANE":"05040","CLASE":"CM","CODSITIO":"000","TEMP":"05040000"}},{"type":"Feature","id":239,"geometry":{"type":"Point","coordinates":[-75.069382083200694,6.9034199861228869]},"properties":{"FID":239,"CORREGIM_I":5550,"NAME":"AMALFI","TIPO":"Cabecera","CODANE":"05031","CLASE":"CM","CODSITIO":"000","TEMP":"05031000"}},{"type":"Feature","id":240,"geometry":{"type":"Point","coordinates":[-74.68942066001523,7.025606019495962]},"properties":{"FID":240,"CORREGIM_I":5551,"NAME":"REMEDIOS","TIPO":"Cabecera","CODANE":"05604","CLASE":"CM","CODSITIO":"000","TEMP":"05604000"}},{"type":"Feature","id":241,"geometry":{"type":"Point","coordinates":[-74.846142930866506,6.6700502002541766]},"properties":{"FID":241,"CORREGIM_I":5552,"NAME":"YALI","TIPO":"Cabecera","CODANE":"05885","CLASE":"CM","CODSITIO":"000","TEMP":"05885000"}},{"type":"Feature","id":242,"geometry":{"type":"Point","coordinates":[-74.783542026256043,6.5522109701149374]},"properties":{"FID":242,"CORREGIM_I":5553,"NAME":"MACEO","TIPO":"Cabecera","CODANE":"05425","CLASE":"CM","CODSITIO":"000","TEMP":"05425000"}},{"type":"Feature","id":243,"geometry":{"type":"Point","coordinates":[-74.752084569966996,6.3992828137442537]},"properties":{"FID":243,"CORREGIM_I":5554,"NAME":"CARACOLI","TIPO":"Cabecera","CODANE":"05142","CLASE":"CM","CODSITIO":"000","TEMP":"05142000"}},{"type":"Feature","id":244,"geometry":{"type":"Point","coordinates":[-74.795882460412287,6.7598659071906315]},"properties":{"FID":244,"CORREGIM_I":5555,"NAME":"VEGACHI","TIPO":"Cabecera","CODANE":"05858","CLASE":"CM","CODSITIO":"000","TEMP":"05858000"}},{"type":"Feature","id":245,"geometry":{"type":"Point","coordinates":[-74.796936333679881,7.5960199720552044]},"properties":{"FID":245,"CORREGIM_I":5556,"NAME":"EL BAGRE","TIPO":"Cabecera","CODANE":"05250","CLASE":"CM","CODSITIO":"000","TEMP":"05250000"}},{"type":"Feature","id":246,"geometry":{"type":"Point","coordinates":[-74.859204517318545,7.4923445459654543]},"properties":{"FID":246,"CORREGIM_I":5557,"NAME":"ZARAGOZA","TIPO":"Cabecera","CODANE":"05895","CLASE":"CM","CODSITIO":"000","TEMP":"05895000"}},{"type":"Feature","id":247,"geometry":{"type":"Point","coordinates":[-74.804261045240438,8.0793561306502113]},"properties":{"FID":247,"CORREGIM_I":5558,"NAME":"NECHI","TIPO":"Cabecera","CODANE":"05495","CLASE":"CM","CODSITIO":"000","TEMP":"05495000"}},{"type":"Feature","id":248,"geometry":{"type":"Point","coordinates":[-74.684250910891166,7.0835404723251383]},"properties":{"FID":248,"CORREGIM_I":5559,"NAME":"SEGOVIA","TIPO":"Cabecera","CODANE":"05736","CLASE":"CM","CODSITIO":"000","TEMP":"05736000"}},{"type":"Feature","id":249,"geometry":{"type":"Point","coordinates":[-74.576177851393808,6.2023794321633661]},"properties":{"FID":249,"CORREGIM_I":5919,"NAME":"PUERTO NARE","TIPO":"Cabecera","CODANE":"05585","CLASE":"CM","CODSITIO":"000","TEMP":"05585000"}},{"type":"Feature","id":250,"geometry":{"type":"Point","coordinates":[-74.410653741131796,6.4947324224749812]},"properties":{"FID":250,"CORREGIM_I":5929,"NAME":"PUERTO BERRIO","TIPO":"Cabecera","CODANE":"05579","CLASE":"CM","CODSITIO":"000","TEMP":"05579000"}},{"type":"Feature","id":251,"geometry":{"type":"Point","coordinates":[-73.914089906279713,6.9997667904627381]},"properties":{"FID":251,"CORREGIM_I":5931,"NAME":"YONDO","TIPO":"Cabecera","CODANE":"05893","CLASE":"CM","CODSITIO":"000","TEMP":"05893000"}},{"type":"Feature","id":252,"geometry":{"type":"Point","coordinates":[-75.157501190562613,8.0260812276385209]},"properties":{"FID":252,"CORREGIM_I":6140,"NAME":"RIO NUEVO","TIPO":"Inspección","CODANE":"05154","CLASE":"IP","CODSITIO":" ","TEMP":"05154"}},{"type":"Feature","id":253,"geometry":{"type":"Point","coordinates":[-75.886547660961099,5.7038469909318623]},"properties":{"FID":253,"CORREGIM_I":7443,"NAME":"EL BOSQUE","TIPO":"Inspección","CODANE":"05091","CLASE":"IP","CODSITIO":" ","TEMP":"05091"}},{"type":"Feature","id":254,"geometry":{"type":"Point","coordinates":[-76.202564184004487,6.356437615753026]},"properties":{"FID":254,"CORREGIM_I":7444,"NAME":"LA LOMA","TIPO":"Caserio","CODANE":"05847","CLASE":"CAS","CODSITIO":"015","TEMP":"05847015"}},{"type":"Feature","id":255,"geometry":{"type":"Point","coordinates":[-76.728828102620113,6.2488639859339719]},"properties":{"FID":255,"CORREGIM_I":7535,"NAME":"PTO ARQUIA","TIPO":"Inspección","CODANE":"05873","CLASE":"IP","CODSITIO":" ","TEMP":"05873"}},{"type":"Feature","id":256,"geometry":{"type":"Point","coordinates":[-76.029640211635027,5.9652167949252286]},"properties":{"FID":256,"CORREGIM_I":7611,"NAME":"LA MARGARITA","TIPO":"Inspección","CODANE":"05642","CLASE":"IP","CODSITIO":"003","TEMP":"05642003"}},{"type":"Feature","id":257,"geometry":{"type":"Point","coordinates":[-76.033448421925158,5.820403687569943]},"properties":{"FID":257,"CORREGIM_I":7622,"NAME":"FARALLONES","TIPO":"Inspección","CODANE":"05101","CLASE":"IP","CODSITIO":"002","TEMP":"05101002"}},{"type":"Feature","id":258,"geometry":{"type":"Point","coordinates":[-76.114957276029472,6.2613682794790746]},"properties":{"FID":258,"CORREGIM_I":7624,"NAME":"SANTA ISABEL","TIPO":"Corregimiento","CODANE":"05847","CLASE":"C","CODSITIO":"006","TEMP":"05847006"}},{"type":"Feature","id":259,"geometry":{"type":"Point","coordinates":[-75.955574545189791,5.8962661855200293]},"properties":{"FID":259,"CORREGIM_I":7643,"NAME":"ALFONSO LOPEZ","TIPO":"Corregimiento","CODANE":"05101","CLASE":"C","CODSITIO":"001","TEMP":"05101001"}},{"type":"Feature","id":260,"geometry":{"type":"Point","coordinates":[-75.956089741012391,5.6889139399969784]},"properties":{"FID":260,"CORREGIM_I":7644,"NAME":"TAPARTO","TIPO":"Corregimiento","CODANE":"05034","CLASE":"C","CODSITIO":"007","TEMP":"05034007"}},{"type":"Feature","id":261,"geometry":{"type":"Point","coordinates":[-75.987246995224538,6.0731897396145316]},"properties":{"FID":261,"CORREGIM_I":7646,"NAME":"MORELIA","TIPO":"Corregimiento","CODANE":"05209","CLASE":"C","CODSITIO":"002","TEMP":"05209002"}},{"type":"Feature","id":262,"geometry":{"type":"Point","coordinates":[-75.922073754638831,5.6134157405127292]},"properties":{"FID":262,"CORREGIM_I":7647,"NAME":"SANTA RITA","TIPO":"Inspección","CODANE":"05034","CLASE":"IP","CODSITIO":"006","TEMP":"05034006"}},{"type":"Feature","id":263,"geometry":{"type":"Point","coordinates":[-75.892652034530087,5.571651126921374]},"properties":{"FID":263,"CORREGIM_I":7648,"NAME":"SANTA BARBARA","TIPO":"Inspección","CODANE":"05034","CLASE":"IP","CODSITIO":"005","TEMP":"05034005"}},{"type":"Feature","id":264,"geometry":{"type":"Point","coordinates":[-75.92721547238115,5.9606623787973332]},"properties":{"FID":264,"CORREGIM_I":7649,"NAME":"EL CONCILIO","TIPO":"Corregimiento","CODANE":"05642","CLASE":"C","CODSITIO":"001","TEMP":"05642001"}},{"type":"Feature","id":265,"geometry":{"type":"Point","coordinates":[-75.933026115837492,6.2231066754274922]},"properties":{"FID":265,"CORREGIM_I":7650,"NAME":"RAMITO","TIPO":"Inspección","CODANE":"05044","CLASE":"IP","CODSITIO":" ","TEMP":"05044"}},{"type":"Feature","id":266,"geometry":{"type":"Point","coordinates":[-75.921729887463087,5.9016799441961254]},"properties":{"FID":266,"CORREGIM_I":7651,"NAME":"SIBERIA","TIPO":"Inspección","CODANE":"05642","CLASE":"IP","CODSITIO":"004","TEMP":"05642004"}},{"type":"Feature","id":267,"geometry":{"type":"Point","coordinates":[-76.445405048366879,8.2265105639150722]},"properties":{"FID":267,"CORREGIM_I":7652,"NAME":"SAN VICENTE DE CONGO","TIPO":"Corregimiento","CODANE":"05837","CLASE":"C","CODSITIO":"005","TEMP":"05837005"}},{"type":"Feature","id":268,"geometry":{"type":"Point","coordinates":[-76.694629626928545,7.5686285190882954]},"properties":{"FID":268,"CORREGIM_I":7653,"NAME":"BARRANQUILLA","TIPO":"Inspección","CODANE":"05172","CLASE":"IP","CODSITIO":"003","TEMP":"05172003"}},{"type":"Feature","id":269,"geometry":{"type":"Point","coordinates":[-76.771854395911291,6.4134575856627274]},"properties":{"FID":269,"CORREGIM_I":7666,"NAME":"BUCHADO","TIPO":"Corregimiento","CODANE":"05873","CLASE":"C","CODSITIO":"007","TEMP":"05873007"}},{"type":"Feature","id":270,"geometry":{"type":"Point","coordinates":[-76.776993296437098,6.4547281573512709]},"properties":{"FID":270,"CORREGIM_I":7673,"NAME":"PTO CORDOBA","TIPO":"Inspección","CODANE":"05873","CLASE":"IP","CODSITIO":" ","TEMP":"05873"}},{"type":"Feature","id":271,"geometry":{"type":"Point","coordinates":[-76.763082471552892,6.4796057658159594]},"properties":{"FID":271,"CORREGIM_I":7674,"NAME":"SAN JOSE DE LA CALLE","TIPO":"Inspección","CODANE":"05873","CLASE":"IP","CODSITIO":"009","TEMP":"05873009"}},{"type":"Feature","id":272,"geometry":{"type":"Point","coordinates":[-76.473229356594771,6.4498682128209657]},"properties":{"FID":272,"CORREGIM_I":7675,"NAME":"MANDE","TIPO":"Corregimiento","CODANE":"05847","CLASE":"C","CODSITIO":"004","TEMP":"05847004"}},{"type":"Feature","id":273,"geometry":{"type":"Point","coordinates":[-76.737881832587306,6.6051251705310889]},"properties":{"FID":273,"CORREGIM_I":7676,"NAME":"LA PLAYA","TIPO":"Inspección","CODANE":"05873","CLASE":"IP","CODSITIO":" ","TEMP":"05873"}},{"type":"Feature","id":274,"geometry":{"type":"Point","coordinates":[-76.868821788804325,6.7265391375898593]},"properties":{"FID":274,"CORREGIM_I":7677,"NAME":"SAN ALEJANDRO","TIPO":"Inspección","CODANE":"05873","CLASE":"IP","CODSITIO":"004","TEMP":"05873004"}},{"type":"Feature","id":275,"geometry":{"type":"Point","coordinates":[-76.508187938751107,7.2542575316610254]},"properties":{"FID":275,"CORREGIM_I":7679,"NAME":"PAVARANDOGRANDE","TIPO":"Inspección","CODANE":"05480","CLASE":"IP","CODSITIO":"004","TEMP":"05480004"}},{"type":"Feature","id":276,"geometry":{"type":"Point","coordinates":[-76.638668905221394,7.4046073082080843]},"properties":{"FID":276,"CORREGIM_I":7680,"NAME":"BAJIRA","TIPO":"Inspección","CODANE":"05480","CLASE":"IP","CODSITIO":" ","TEMP":"05480"}},{"type":"Feature","id":277,"geometry":{"type":"Point","coordinates":[-76.486194953016195,7.3592556638442401]},"properties":{"FID":277,"CORREGIM_I":7681,"NAME":"VILLA ARTEAGA","TIPO":"Inspección","CODANE":"05480","CLASE":"IP","CODSITIO":"003","TEMP":"05480003"}},{"type":"Feature","id":278,"geometry":{"type":"Point","coordinates":[-76.506108540237818,7.390045557584604]},"properties":{"FID":278,"CORREGIM_I":7682,"NAME":"BEJUQUILLO","TIPO":"Inspección","CODANE":"05480","CLASE":"IP","CODSITIO":"001","TEMP":"05480001"}},{"type":"Feature","id":279,"geometry":{"type":"Point","coordinates":[-76.889356560291375,8.6206753587342053]},"properties":{"FID":279,"CORREGIM_I":7683,"NAME":"PUNTA CARIBANA","TIPO":"Inspección","CODANE":"05490","CLASE":"IP","CODSITIO":" ","TEMP":"05490"}},{"type":"Feature","id":280,"geometry":{"type":"Point","coordinates":[-76.965126869946317,7.6464026383535337]},"properties":{"FID":280,"CORREGIM_I":7689,"NAME":"RAICERO","TIPO":"Inspección","CODANE":"05837","CLASE":"IP","CODSITIO":" ","TEMP":"05837"}},{"type":"Feature","id":281,"geometry":{"type":"Point","coordinates":[-76.940871373632234,8.5421576119723301]},"properties":{"FID":281,"CORREGIM_I":7699,"NAME":"PUNTA ARENAS","TIPO":"Inspección","CODANE":"05490","CLASE":"IP","CODSITIO":" ","TEMP":"05490"}},{"type":"Feature","id":282,"geometry":{"type":"Point","coordinates":[-76.448722112427447,8.1479549811005061]},"properties":{"FID":282,"CORREGIM_I":7700,"NAME":"PUERTO RICO","TIPO":"Corregimiento","CODANE":"05837","CLASE":"C","CODSITIO":"014","TEMP":"05837014"}},{"type":"Feature","id":283,"geometry":{"type":"Point","coordinates":[-76.625049304418866,7.5822294326081803]},"properties":{"FID":283,"CORREGIM_I":7701,"NAME":"EL TRIGRE","TIPO":"Inspección","CODANE":"05172","CLASE":"IP","CODSITIO":" ","TEMP":"05172"}},{"type":"Feature","id":284,"geometry":{"type":"Point","coordinates":[-76.661097858993827,7.8609970780207519]},"properties":{"FID":284,"CORREGIM_I":7702,"NAME":"CHURIDO","TIPO":"Inspección","CODANE":"05045","CLASE":"IP","CODSITIO":"002","TEMP":"05045002"}},{"type":"Feature","id":285,"geometry":{"type":"Point","coordinates":[-76.64617202044937,7.6267027087949861]},"properties":{"FID":285,"CORREGIM_I":7703,"NAME":"EL VENADO","TIPO":"Inspección","CODANE":"05172","CLASE":"IP","CODSITIO":" ","TEMP":"05172"}},{"type":"Feature","id":286,"geometry":{"type":"Point","coordinates":[-76.63658979481346,7.786107464396677]},"properties":{"FID":286,"CORREGIM_I":7704,"NAME":"BIJAGUAL","TIPO":"Inspección","CODANE":"05045","CLASE":"IP","CODSITIO":"008","TEMP":"05045008"}},{"type":"Feature","id":287,"geometry":{"type":"Point","coordinates":[-76.665415348246242,8.125132717404723]},"properties":{"FID":287,"CORREGIM_I":7705,"NAME":"EL DOS","TIPO":"Inspección","CODANE":"05837","CLASE":"IP","CODSITIO":"010","TEMP":"05837010"}},{"type":"Feature","id":288,"geometry":{"type":"Point","coordinates":[-76.697763910735929,7.9279925115739136]},"properties":{"FID":288,"CORREGIM_I":7706,"NAME":"NUEVA COLONIA","TIPO":"Corregimiento","CODANE":"05837","CLASE":"C","CODSITIO":"002","TEMP":"05837002"}},{"type":"Feature","id":289,"geometry":{"type":"Point","coordinates":[-76.630403086579292,7.9812011382935708]},"properties":{"FID":289,"CORREGIM_I":7707,"NAME":"CURRULAO","TIPO":"Corregimiento","CODANE":"05837","CLASE":"C","CODSITIO":"001","TEMP":"05837001"}},{"type":"Feature","id":290,"geometry":{"type":"Point","coordinates":[-76.642977394609503,8.057336401248353]},"properties":{"FID":290,"CORREGIM_I":7708,"NAME":"EL TRES","TIPO":"Corregimiento","CODANE":"05837","CLASE":"C","CODSITIO":"003","TEMP":"05837003"}},{"type":"Feature","id":291,"geometry":{"type":"Point","coordinates":[-76.572285996353443,7.8541621917083617]},"properties":{"FID":291,"CORREGIM_I":7709,"NAME":"SAN JOSE","TIPO":"Inspección","CODANE":"05045","CLASE":"IP","CODSITIO":"001","TEMP":"05045001"}},{"type":"Feature","id":292,"geometry":{"type":"Point","coordinates":[-76.604121869877929,7.6785409454879803]},"properties":{"FID":292,"CORREGIM_I":7710,"NAME":"EL CONGO","TIPO":"Inspección","CODANE":"05172","CLASE":"IP","CODSITIO":" ","TEMP":"05172"}},{"type":"Feature","id":293,"geometry":{"type":"Point","coordinates":[-76.618182983349186,7.928882723415585]},"properties":{"FID":293,"CORREGIM_I":7711,"NAME":"RIO GRANDE","TIPO":"Corregimiento","CODANE":"05837","CLASE":"C","CODSITIO":"008","TEMP":"05837008"}},{"type":"Feature","id":294,"geometry":{"type":"Point","coordinates":[-76.452620881368873,8.0954965358685378]},"properties":{"FID":294,"CORREGIM_I":7712,"NAME":"LAS PAVAS","TIPO":"Inspección","CODANE":"05837","CLASE":"IP","CODSITIO":" ","TEMP":"05837"}},{"type":"Feature","id":295,"geometry":{"type":"Point","coordinates":[-76.649461173928202,8.6749013478921118]},"properties":{"FID":295,"CORREGIM_I":7713,"NAME":"ZAPATA","TIPO":"Inspección","CODANE":"05490","CLASE":"IP","CODSITIO":"004","TEMP":"05490004"}},{"type":"Feature","id":296,"geometry":{"type":"Point","coordinates":[-76.68240205026585,8.5070489906697162]},"properties":{"FID":296,"CORREGIM_I":7714,"NAME":"CARIBIA","TIPO":"Inspección","CODANE":"05490","CLASE":"IP","CODSITIO":"005","TEMP":"05490005"}},{"type":"Feature","id":297,"geometry":{"type":"Point","coordinates":[-76.740372093227208,8.326623435495577]},"properties":{"FID":297,"CORREGIM_I":7715,"NAME":"EL TOTUMO","TIPO":"Inspección","CODANE":"05490","CLASE":"IP","CODSITIO":"001","TEMP":"05490001"}},{"type":"Feature","id":298,"geometry":{"type":"Point","coordinates":[-76.709370238327764,8.6340817411865469]},"properties":{"FID":298,"CORREGIM_I":7716,"NAME":"MULATOS","TIPO":"Inspección","CODANE":"05490","CLASE":"IP","CODSITIO":"002","TEMP":"05490002"}},{"type":"Feature","id":299,"geometry":{"type":"Point","coordinates":[-76.660420441345224,8.7137317591969925]},"properties":{"FID":299,"CORREGIM_I":7717,"NAME":"PUNTA GIGANTON","TIPO":"Inspección","CODANE":"05490","CLASE":"IP","CODSITIO":" ","TEMP":"05490"}},{"type":"Feature","id":300,"geometry":{"type":"Point","coordinates":[-76.484689156009495,8.3671322963591859]},"properties":{"FID":300,"CORREGIM_I":7718,"NAME":"SAN JOSE DE MULATOS","TIPO":"Corregimiento","CODANE":"05837","CLASE":"C","CODSITIO":"013","TEMP":"05837013"}},{"type":"Feature","id":301,"geometry":{"type":"Point","coordinates":[-76.49291386836444,8.6187748157497115]},"properties":{"FID":301,"CORREGIM_I":7719,"NAME":"LA TRINIDAD","TIPO":"Inspección","CODANE":"05051","CLASE":"IP","CODSITIO":"009","TEMP":"05051009"}},{"type":"Feature","id":302,"geometry":{"type":"Point","coordinates":[-76.467529838785609,8.6109744366448311]},"properties":{"FID":302,"CORREGIM_I":7720,"NAME":"EL YESO","TIPO":"Inspección","CODANE":"05051","CLASE":"IP","CODSITIO":"008","TEMP":"05051008"}},{"type":"Feature","id":303,"geometry":{"type":"Point","coordinates":[-76.431260739430385,8.0024738742809394]},"properties":{"FID":303,"CORREGIM_I":7721,"NAME":"RABOSAL","TIPO":"Inspección","CODANE":"05045","CLASE":"IP","CODSITIO":" ","TEMP":"05045"}},{"type":"Feature","id":304,"geometry":{"type":"Point","coordinates":[-76.123799733721768,6.8664061403753909]},"properties":{"FID":304,"CORREGIM_I":7722,"NAME":"EL PITAL","TIPO":"Inspección","CODANE":"05842","CLASE":"IP","CODSITIO":"003","TEMP":"05842003"}},{"type":"Feature","id":305,"geometry":{"type":"Point","coordinates":[-76.249888029412205,6.9344987564136051]},"properties":{"FID":305,"CORREGIM_I":7723,"NAME":"EL BOTON","TIPO":"Inspección","CODANE":"05234","CLASE":"IP","CODSITIO":"014","TEMP":"05234014"}},{"type":"Feature","id":306,"geometry":{"type":"Point","coordinates":[-76.313823797306426,6.6698538871040363]},"properties":{"FID":306,"CORREGIM_I":7724,"NAME":"CARAUTA","TIPO":"Corregimiento","CODANE":"05284","CLASE":"C","CODSITIO":"001","TEMP":"05284001"}},{"type":"Feature","id":307,"geometry":{"type":"Point","coordinates":[-76.364559539002201,6.7361763234270189]},"properties":{"FID":307,"CORREGIM_I":7725,"NAME":"MURRI","TIPO":"Inspección","CODANE":"05284","CLASE":"IP","CODSITIO":"004","TEMP":"05284004"}},{"type":"Feature","id":308,"geometry":{"type":"Point","coordinates":[-76.415244776684347,6.7907795297195035]},"properties":{"FID":308,"CORREGIM_I":7726,"NAME":"CHONTADURO","TIPO":"Corregimiento","CODANE":"05284","CLASE":"C","CODSITIO":"003","TEMP":"05284003"}},{"type":"Feature","id":309,"geometry":{"type":"Point","coordinates":[-76.169850038838078,6.749446550328412]},"properties":{"FID":309,"CORREGIM_I":7727,"NAME":"MUSINGA","TIPO":"Inspección","CODANE":"05284","CLASE":"IP","CODSITIO":"005","TEMP":"05284005"}},{"type":"Feature","id":310,"geometry":{"type":"Point","coordinates":[-76.199161280642031,6.4424337758685031]},"properties":{"FID":310,"CORREGIM_I":7728,"NAME":"LA ENCARNACION","TIPO":"Corregimiento","CODANE":"05847","CLASE":"C","CODSITIO":"003","TEMP":"05847003"}},{"type":"Feature","id":311,"geometry":{"type":"Point","coordinates":[-76.207001478130906,6.8825625144001101]},"properties":{"FID":311,"CORREGIM_I":7729,"NAME":"OROBAJO","TIPO":"Inspección","CODANE":"05842","CLASE":"IP","CODSITIO":" ","TEMP":"05842"}},{"type":"Feature","id":312,"geometry":{"type":"Point","coordinates":[-76.164603759359778,6.8347380521660925]},"properties":{"FID":312,"CORREGIM_I":7730,"NAME":"NOBOGA","TIPO":"Corregimiento","CODANE":"05284","CLASE":"C","CODSITIO":"011","TEMP":"05284011"}},{"type":"Feature","id":313,"geometry":{"type":"Point","coordinates":[-76.161747107422954,6.8556790968176315]},"properties":{"FID":313,"CORREGIM_I":7731,"NAME":"CHORODO","TIPO":"Inspección","CODANE":"05842","CLASE":"IP","CODSITIO":" ","TEMP":"05842"}},{"type":"Feature","id":314,"geometry":{"type":"Point","coordinates":[-76.27771310672378,7.0316236405728265]},"properties":{"FID":314,"CORREGIM_I":7733,"NAME":"CARRA","TIPO":"Inspección","CODANE":"05234","CLASE":"IP","CODSITIO":"007","TEMP":"05234007"}},{"type":"Feature","id":315,"geometry":{"type":"Point","coordinates":[-76.397815010368646,7.1918419376781957]},"properties":{"FID":315,"CORREGIM_I":7734,"NAME":"SANTA TERESA","TIPO":"Inspección","CODANE":"05234","CLASE":"IP","CODSITIO":"013","TEMP":"05234013"}},{"type":"Feature","id":316,"geometry":{"type":"Point","coordinates":[-76.240423596397818,7.0765888709400002]},"properties":{"FID":316,"CORREGIM_I":7735,"NAME":"LLANO GRANDE","TIPO":"Inspección","CODANE":"05234","CLASE":"IP","CODSITIO":"009","TEMP":"05234009"}},{"type":"Feature","id":317,"geometry":{"type":"Point","coordinates":[-76.18900760653446,7.0183053542486196]},"properties":{"FID":317,"CORREGIM_I":7736,"NAME":"LAS CRUCES","TIPO":"Inspección","CODANE":"05234","CLASE":"IP","CODSITIO":"010","TEMP":"05234010"}},{"type":"Feature","id":318,"geometry":{"type":"Point","coordinates":[-76.137029231967588,7.0206778250534132]},"properties":{"FID":318,"CORREGIM_I":7737,"NAME":"URAMAGRANDE","TIPO":"Inspección","CODANE":"05234","CLASE":"IP","CODSITIO":"004","TEMP":"05234004"}},{"type":"Feature","id":319,"geometry":{"type":"Point","coordinates":[-75.918719176567862,6.7487051627502002]},"properties":{"FID":319,"CORREGIM_I":7739,"NAME":"SINCIERCO","TIPO":"Inspección","CODANE":"05113","CLASE":"IP","CODSITIO":" ","TEMP":"05113"}},{"type":"Feature","id":320,"geometry":{"type":"Point","coordinates":[-76.06777675438957,6.7098824685651408]},"properties":{"FID":320,"CORREGIM_I":7740,"NAME":"LA ANTIGUA","TIPO":"Inspección","CODANE":"05004","CLASE":"IP","CODSITIO":" ","TEMP":"05004"}},{"type":"Feature","id":321,"geometry":{"type":"Point","coordinates":[-76.081192017697575,6.7372390242845857]},"properties":{"FID":321,"CORREGIM_I":7741,"NAME":"POTON","TIPO":"Corregimiento","CODANE":"05284","CLASE":"C","CODSITIO":"007","TEMP":"05284007"}},{"type":"Feature","id":322,"geometry":{"type":"Point","coordinates":[-75.951314875113724,6.5611111775978044]},"properties":{"FID":322,"CORREGIM_I":7742,"NAME":"LAS AZULES","TIPO":"Corregimiento","CODANE":"05042","CLASE":"C","CODSITIO":"003","TEMP":"05042003"}},{"type":"Feature","id":323,"geometry":{"type":"Point","coordinates":[-75.915996734975806,6.5536408649678632]},"properties":{"FID":323,"CORREGIM_I":7743,"NAME":"SAN CARLOS","TIPO":"Inspección","CODANE":"05042","CLASE":"IP","CODSITIO":" ","TEMP":"05042"}},{"type":"Feature","id":324,"geometry":{"type":"Point","coordinates":[-75.912477665442324,6.7381994921927282]},"properties":{"FID":324,"CORREGIM_I":7744,"NAME":"GUARCO","TIPO":"Inspección","CODANE":"05113","CLASE":"IP","CODSITIO":"002","TEMP":"05113002"}},{"type":"Feature","id":325,"geometry":{"type":"Point","coordinates":[-75.911964080364129,6.7020416588259728]},"properties":{"FID":325,"CORREGIM_I":7745,"NAME":"MANGLAR","TIPO":"Corregimiento","CODANE":"05113","CLASE":"C","CODSITIO":"007","TEMP":"05113007"}},{"type":"Feature","id":326,"geometry":{"type":"Point","coordinates":[-75.892019858518879,6.6749644699884456]},"properties":{"FID":326,"CORREGIM_I":7746,"NAME":"PINGURTO","TIPO":"Corregimiento","CODANE":"05306","CLASE":"C","CODSITIO":"002","TEMP":"05306002"}},{"type":"Feature","id":327,"geometry":{"type":"Point","coordinates":[-75.896471255325594,6.6956089746892724]},"properties":{"FID":327,"CORREGIM_I":7747,"NAME":"EL NARANJO","TIPO":"Inspección","CODANE":"05113","CLASE":"IP","CODSITIO":"001","TEMP":"05113001"}},{"type":"Feature","id":328,"geometry":{"type":"Point","coordinates":[-75.973288405835461,6.9402350165668345]},"properties":{"FID":328,"CORREGIM_I":7748,"NAME":"JUNTAS DE URAMITA","TIPO":"Corregimiento","CODANE":"05138","CLASE":"C","CODSITIO":"003","TEMP":"05138003"}},{"type":"Feature","id":329,"geometry":{"type":"Point","coordinates":[-76.058266856385359,6.8587916728850429]},"properties":{"FID":329,"CORREGIM_I":7749,"NAME":"CESTILLAL","TIPO":"Inspección","CODANE":"05138","CLASE":"IP","CODSITIO":"002","TEMP":"05138002"}},{"type":"Feature","id":330,"geometry":{"type":"Point","coordinates":[-76.040589535163733,6.85000774443116]},"properties":{"FID":330,"CORREGIM_I":7750,"NAME":"SAN PASCUAL","TIPO":"Inspección","CODANE":"05138","CLASE":"IP","CODSITIO":"005","TEMP":"05138005"}},{"type":"Feature","id":331,"geometry":{"type":"Point","coordinates":[-76.032501838847011,7.0072615437771093]},"properties":{"FID":331,"CORREGIM_I":7751,"NAME":"ARMENIA","TIPO":"Inspección","CODANE":"05234","CLASE":"IP","CODSITIO":"008","TEMP":"05234008"}},{"type":"Feature","id":332,"geometry":{"type":"Point","coordinates":[-75.903038163960844,6.9076508681711912]},"properties":{"FID":332,"CORREGIM_I":7752,"NAME":"URALCO","TIPO":"Corregimiento","CODANE":"05113","CLASE":"C","CODSITIO":"004","TEMP":"05113004"}},{"type":"Feature","id":333,"geometry":{"type":"Point","coordinates":[-75.910356838344285,6.8158882960440854]},"properties":{"FID":333,"CORREGIM_I":7753,"NAME":"TABACAL","TIPO":"Inspección","CODANE":"05113","CLASE":"IP","CODSITIO":"003","TEMP":"05113003"}},{"type":"Feature","id":334,"geometry":{"type":"Point","coordinates":[-75.908298082750534,6.9956143267821185]},"properties":{"FID":334,"CORREGIM_I":7754,"NAME":"SANTA AGUEDA","TIPO":"Inspección","CODANE":"05543","CLASE":"IP","CODSITIO":" ","TEMP":"05543"}},{"type":"Feature","id":335,"geometry":{"type":"Point","coordinates":[-75.902909967153974,7.061385689892604]},"properties":{"FID":335,"CORREGIM_I":7755,"NAME":"LOS LLANOS","TIPO":"Inspección","CODANE":"05543","CLASE":"IP","CODSITIO":"003","TEMP":"05543003"}},{"type":"Feature","id":336,"geometry":{"type":"Point","coordinates":[-76.320195561520094,8.3918847246646227]},"properties":{"FID":336,"CORREGIM_I":7758,"NAME":"SANTA CATALINA","TIPO":"Inspección","CODANE":"05665","CLASE":"IP","CODSITIO":"002","TEMP":"05665002"}},{"type":"Feature","id":337,"geometry":{"type":"Point","coordinates":[-76.423321767615917,8.5724076238039277]},"properties":{"FID":337,"CORREGIM_I":7759,"NAME":"PLATAS","TIPO":"Inspección","CODANE":"05051","CLASE":"IP","CODSITIO":"010","TEMP":"05051010"}},{"type":"Feature","id":338,"geometry":{"type":"Point","coordinates":[-76.375579604487569,8.6119502897022802]},"properties":{"FID":338,"CORREGIM_I":7760,"NAME":"EL CARMELO","TIPO":"Inspección","CODANE":"05051","CLASE":"IP","CODSITIO":"003","TEMP":"05051003"}},{"type":"Feature","id":339,"geometry":{"type":"Point","coordinates":[-76.414621532416433,8.678027883417947]},"properties":{"FID":339,"CORREGIM_I":7774,"NAME":"LA TOYOSA","TIPO":"Inspección","CODANE":"05051","CLASE":"IP","CODSITIO":" ","TEMP":"05051"}},{"type":"Feature","id":340,"geometry":{"type":"Point","coordinates":[-75.57723205903757,7.0164081257711572]},"properties":{"FID":340,"CORREGIM_I":7818,"NAME":"LOMA DE OCHALI","TIPO":"Inspección","CODANE":"05887","CLASE":"IP","CODSITIO":"020","TEMP":"05887020"}},{"type":"Feature","id":341,"geometry":{"type":"Point","coordinates":[-75.765466389118103,6.225385496485214]},"properties":{"FID":341,"CORREGIM_I":7949,"NAME":"LA PAVA","TIPO":"Inspección","CODANE":"05347","CLASE":"IP","CODSITIO":"008","TEMP":"05347008"}},{"type":"Feature","id":342,"geometry":{"type":"Point","coordinates":[-75.864363304417282,5.8291709438680321]},"properties":{"FID":342,"CORREGIM_I":7950,"NAME":"SINAI","TIPO":"Inspección","CODANE":"05576","CLASE":"IP","CODSITIO":"003","TEMP":"05576003"}},{"type":"Feature","id":343,"geometry":{"type":"Point","coordinates":[-75.866981027138095,5.7401974384460495]},"properties":{"FID":343,"CORREGIM_I":7957,"NAME":"SAN JOSE","TIPO":"Inspección","CODANE":"05034","CLASE":"IP","CODSITIO":"003","TEMP":"05034003"}},{"type":"Feature","id":344,"geometry":{"type":"Point","coordinates":[-75.875075069664092,5.7717431881047139]},"properties":{"FID":344,"CORREGIM_I":7958,"NAME":"HOYO GRANDE","TIPO":"Inspección","CODANE":"05353","CLASE":"IP","CODSITIO":"001","TEMP":"05353001"}},{"type":"Feature","id":345,"geometry":{"type":"Point","coordinates":[-75.851145749318619,5.5384251461726324]},"properties":{"FID":345,"CORREGIM_I":7959,"NAME":"LAS MACANAS","TIPO":"Inspección","CODANE":"05364","CLASE":"IP","CODSITIO":"002","TEMP":"05364002"}},{"type":"Feature","id":346,"geometry":{"type":"Point","coordinates":[-75.850531475055803,5.6223319283323479]},"properties":{"FID":346,"CORREGIM_I":7960,"NAME":"LA CASCADA","TIPO":"Inspección","CODANE":"05364","CLASE":"IP","CODSITIO":"004","TEMP":"05364004"}},{"type":"Feature","id":347,"geometry":{"type":"Point","coordinates":[-75.832668063242451,6.9887618104145544]},"properties":{"FID":347,"CORREGIM_I":7972,"NAME":"TOLDAS","TIPO":"Inspección","CODANE":"05543","CLASE":"IP","CODSITIO":"005","TEMP":"05543005"}},{"type":"Feature","id":348,"geometry":{"type":"Point","coordinates":[-75.865470231543441,6.6493679489338682]},"properties":{"FID":348,"CORREGIM_I":7973,"NAME":"CATIVO","TIPO":"Corregimiento","CODANE":"05042","CLASE":"C","CODSITIO":"001","TEMP":"05042001"}},{"type":"Feature","id":349,"geometry":{"type":"Point","coordinates":[-75.88479730157988,6.6329096852933658]},"properties":{"FID":349,"CORREGIM_I":7974,"NAME":"EL LLANO DE BRISAS","TIPO":"Inspección","CODANE":"05042","CLASE":"IP","CODSITIO":"005","TEMP":"05042005"}},{"type":"Feature","id":350,"geometry":{"type":"Point","coordinates":[-75.871664017508905,5.938624780124873]},"properties":{"FID":350,"CORREGIM_I":7975,"NAME":"PEÑALISA","TIPO":"Inspección","CODANE":"05642","CLASE":"IP","CODSITIO":"010","TEMP":"05642010"}},{"type":"Feature","id":351,"geometry":{"type":"Point","coordinates":[-75.880272160609891,6.9356738993173108]},"properties":{"FID":351,"CORREGIM_I":7976,"NAME":"EL AGRIO","TIPO":"Inspección","CODANE":"05543","CLASE":"IP","CODSITIO":"009","TEMP":"05543009"}},{"type":"Feature","id":352,"geometry":{"type":"Point","coordinates":[-75.833867770517543,6.8134064585211185]},"properties":{"FID":352,"CORREGIM_I":7977,"NAME":"EL JUNCO","TIPO":"Inspección","CODANE":"05628","CLASE":"IP","CODSITIO":"001","TEMP":"05628001"}},{"type":"Feature","id":353,"geometry":{"type":"Point","coordinates":[-75.844255372600202,6.9693497813334204]},"properties":{"FID":353,"CORREGIM_I":7978,"NAME":"JERIGUA","TIPO":"Inspección","CODANE":"05543","CLASE":"IP","CODSITIO":"010","TEMP":"05543010"}},{"type":"Feature","id":354,"geometry":{"type":"Point","coordinates":[-75.79252804149759,6.3854357008663696]},"properties":{"FID":354,"CORREGIM_I":7979,"NAME":"QUIRIMARA","TIPO":"Inspección","CODANE":"05240","CLASE":"IP","CODSITIO":"009","TEMP":"05240009"}},{"type":"Feature","id":355,"geometry":{"type":"Point","coordinates":[-75.798328096424342,6.1451249436526485]},"properties":{"FID":355,"CORREGIM_I":7980,"NAME":"LA HERRADURA","TIPO":"Inspección","CODANE":"05059","CLASE":"IP","CODSITIO":"001","TEMP":"05059001"}},{"type":"Feature","id":356,"geometry":{"type":"Point","coordinates":[-75.784759441220885,5.9094017934358183]},"properties":{"FID":356,"CORREGIM_I":7981,"NAME":"ESTACION TARSO","TIPO":"Inspección","CODANE":"05861","CLASE":"IP","CODSITIO":"007","TEMP":"05861007"}},{"type":"Feature","id":357,"geometry":{"type":"Point","coordinates":[-75.811110609007031,6.7483488941102872]},"properties":{"FID":357,"CORREGIM_I":7982,"NAME":"CRISTOBAL","TIPO":"Caserio","CODANE":"05411","CLASE":"CAS","CODSITIO":"007","TEMP":"05411007"}},{"type":"Feature","id":358,"geometry":{"type":"Point","coordinates":[-75.829138500770497,6.9308574957291968]},"properties":{"FID":358,"CORREGIM_I":7983,"NAME":"BARBACOAS","TIPO":"Inspección","CODANE":"05543","CLASE":"IP","CODSITIO":"001","TEMP":"05543001"}},{"type":"Feature","id":359,"geometry":{"type":"Point","coordinates":[-75.805755832010149,6.7782759959657639]},"properties":{"FID":359,"CORREGIM_I":7984,"NAME":"LA HONDA","TIPO":"Inspección","CODANE":"05411","CLASE":"IP","CODSITIO":"002","TEMP":"05411002"}},{"type":"Feature","id":360,"geometry":{"type":"Point","coordinates":[-75.782646805328525,6.9719981188051374]},"properties":{"FID":360,"CORREGIM_I":7985,"NAME":"NUHABA","TIPO":"Inspección","CODANE":"05628","CLASE":"IP","CODSITIO":" ","TEMP":"05628"}},{"type":"Feature","id":361,"geometry":{"type":"Point","coordinates":[-75.648581412506459,5.672744208921892]},"properties":{"FID":361,"CORREGIM_I":7986,"NAME":"LA FABIANA","TIPO":"Inspección","CODANE":"05856","CLASE":"IP","CODSITIO":"002","TEMP":"05856002"}},{"type":"Feature","id":362,"geometry":{"type":"Point","coordinates":[-75.693753255595311,5.5908598067358746]},"properties":{"FID":362,"CORREGIM_I":8005,"NAME":"SAN PABLO","TIPO":"Corregimiento","CODANE":"05789","CLASE":"C","CODSITIO":"002","TEMP":"05789002"}},{"type":"Feature","id":363,"geometry":{"type":"Point","coordinates":[-75.721932112956793,6.4064823022259407]},"properties":{"FID":363,"CORREGIM_I":8008,"NAME":"LLANOS DE SAN JUAN","TIPO":"Inspección","CODANE":"05656","CLASE":"IP","CODSITIO":"002","TEMP":"05656002"}},{"type":"Feature","id":364,"geometry":{"type":"Point","coordinates":[-75.752215878968343,6.0633247644410595]},"properties":{"FID":364,"CORREGIM_I":8009,"NAME":"EL LIBANO","TIPO":"Inspección","CODANE":"05809","CLASE":"IP","CODSITIO":"002","TEMP":"05809002"}},{"type":"Feature","id":365,"geometry":{"type":"Point","coordinates":[-75.756661395617542,5.9253144119684347]},"properties":{"FID":365,"CORREGIM_I":8010,"NAME":"ARABIA","TIPO":"Corregimiento","CODANE":"05861","CLASE":"C","CODSITIO":"001","TEMP":"05861001"}},{"type":"Feature","id":366,"geometry":{"type":"Point","coordinates":[-75.733049979403461,5.9297059903830487]},"properties":{"FID":366,"CORREGIM_I":8011,"NAME":"MINAS","TIPO":"Inspección","CODANE":"05861","CLASE":"IP","CODSITIO":" ","TEMP":"05861"}},{"type":"Feature","id":367,"geometry":{"type":"Point","coordinates":[-75.751437889846514,6.3857243957539449]},"properties":{"FID":367,"CORREGIM_I":8012,"NAME":"GUAYABAL","TIPO":"Inspección","CODANE":"05240","CLASE":"IP","CODSITIO":"007","TEMP":"05240007"}},{"type":"Feature","id":368,"geometry":{"type":"Point","coordinates":[-75.759388961417159,6.2058539339641738]},"properties":{"FID":368,"CORREGIM_I":8013,"NAME":"ALTO EL CORRAL","TIPO":"Corregimiento","CODANE":"05347","CLASE":"C","CODSITIO":"001","TEMP":"05347001"}},{"type":"Feature","id":369,"geometry":{"type":"Point","coordinates":[-75.742792640670032,6.2560359057824746]},"properties":{"FID":369,"CORREGIM_I":8014,"NAME":"LLANOS DE SAN JOSE","TIPO":"Inspección","CODANE":"05347","CLASE":"IP","CODSITIO":"003","TEMP":"05347003"}},{"type":"Feature","id":370,"geometry":{"type":"Point","coordinates":[-75.727725023262863,6.3587745284711996]},"properties":{"FID":370,"CORREGIM_I":8015,"NAME":"BRASIL","TIPO":"Inspección","CODANE":"05240","CLASE":"IP","CODSITIO":"001","TEMP":"05240001"}},{"type":"Feature","id":371,"geometry":{"type":"Point","coordinates":[-75.692711164556684,5.9624925333611625]},"properties":{"FID":371,"CORREGIM_I":8016,"NAME":"PALENQUE","TIPO":"Inspección","CODANE":"05861","CLASE":"IP","CODSITIO":"006","TEMP":"05861006"}},{"type":"Feature","id":372,"geometry":{"type":"Point","coordinates":[-75.707195222368398,5.9389391927356101]},"properties":{"FID":372,"CORREGIM_I":8017,"NAME":"EL RINCON","TIPO":"Inspección","CODANE":"05861","CLASE":"IP","CODSITIO":"005","TEMP":"05861005"}},{"type":"Feature","id":373,"geometry":{"type":"Point","coordinates":[-75.709259897140555,5.7855480664547256]},"properties":{"FID":373,"CORREGIM_I":8018,"NAME":"PALO CABILDO","TIPO":"Inspección","CODANE":"05368","CLASE":"IP","CODSITIO":" ","TEMP":"05368"}},{"type":"Feature","id":374,"geometry":{"type":"Point","coordinates":[-75.688403057607331,5.737645294956959]},"properties":{"FID":374,"CORREGIM_I":8019,"NAME":"PALERMO","TIPO":"Corregimiento","CODANE":"05789","CLASE":"C","CODSITIO":"001","TEMP":"05789001"}},{"type":"Feature","id":375,"geometry":{"type":"Point","coordinates":[-75.692794013047802,5.8444223462022329]},"properties":{"FID":375,"CORREGIM_I":8020,"NAME":"PUENTE IGLESIAS","TIPO":"Inspección","CODANE":"05282","CLASE":"IP","CODSITIO":"004","TEMP":"05282004"}},{"type":"Feature","id":376,"geometry":{"type":"Point","coordinates":[-75.686853664146128,5.8724609897824189]},"properties":{"FID":376,"CORREGIM_I":8021,"NAME":"MARSELLA","TIPO":"Inspección","CODANE":"05282","CLASE":"IP","CODSITIO":"005","TEMP":"05282005"}},{"type":"Feature","id":377,"geometry":{"type":"Point","coordinates":[-75.693489199521252,6.1004819608719414]},"properties":{"FID":377,"CORREGIM_I":8022,"NAME":"LA ESTACION","TIPO":"Corregimiento","CODANE":"05036","CLASE":"C","CODSITIO":"001","TEMP":"05036001"}},{"type":"Feature","id":378,"geometry":{"type":"Point","coordinates":[-75.708402079093574,6.1760397330970545]},"properties":{"FID":378,"CORREGIM_I":8023,"NAME":"EL PUEBLITO","TIPO":"Corregimiento","CODANE":"05347","CLASE":"C","CODSITIO":"002","TEMP":"05347002"}},{"type":"Feature","id":379,"geometry":{"type":"Point","coordinates":[-75.646951616018939,6.4170944740181302]},"properties":{"FID":379,"CORREGIM_I":8024,"NAME":"OVEJAS","TIPO":"Corregimiento","CODANE":"05664","CLASE":"C","CODSITIO":"005","TEMP":"05664005"}},{"type":"Feature","id":380,"geometry":{"type":"Point","coordinates":[-75.401014726575681,6.3942461107073978]},"properties":{"FID":380,"CORREGIM_I":8116,"NAME":"SAN DIEGO","TIPO":"Inspección","CODANE":"05079","CLASE":"IP","CODSITIO":" ","TEMP":"05079"}},{"type":"Feature","id":381,"geometry":{"type":"Point","coordinates":[-75.465552960726143,6.0914799182601955]},"properties":{"FID":381,"CORREGIM_I":8117,"NAME":"DON DIEGO","TIPO":"Inspección","CODANE":"05607","CLASE":"IP","CODSITIO":" ","TEMP":"05607"}},{"type":"Feature","id":382,"geometry":{"type":"Point","coordinates":[-75.527774194212,5.8536455172534447]},"properties":{"FID":382,"CORREGIM_I":8118,"NAME":"EL CAIRO","TIPO":"Corregimiento","CODANE":"05679","CLASE":"C","CODSITIO":"002","TEMP":"05679002"}},{"type":"Feature","id":383,"geometry":{"type":"Point","coordinates":[-75.59771108525382,5.7606549075030618]},"properties":{"FID":383,"CORREGIM_I":8119,"NAME":"LA PINTADA","TIPO":"Inspección","CODANE":"05390","CLASE":"IP","CODSITIO":"000","TEMP":"05390000"}},{"type":"Feature","id":384,"geometry":{"type":"Point","coordinates":[-75.563576755546393,5.7951953698666365]},"properties":{"FID":384,"CORREGIM_I":8122,"NAME":"DAMASCO","TIPO":"Inspección","CODANE":"05679","CLASE":"IP","CODSITIO":"001","TEMP":"05679001"}},{"type":"Feature","id":385,"geometry":{"type":"Point","coordinates":[-75.580475662222582,5.965108332116202]},"properties":{"FID":385,"CORREGIM_I":8123,"NAME":"VERSALLES","TIPO":"Corregimiento","CODANE":"05679","CLASE":"C","CODSITIO":"004","TEMP":"05679004"}},{"type":"Feature","id":386,"geometry":{"type":"Point","coordinates":[-75.53326009595817,5.9191641557236467]},"properties":{"FID":386,"CORREGIM_I":8124,"NAME":"SABANETAS","TIPO":"Corregimiento","CODANE":"05467","CLASE":"C","CODSITIO":"001","TEMP":"05467001"}},{"type":"Feature","id":387,"geometry":{"type":"Point","coordinates":[-75.472413843510282,5.7104404496850822]},"properties":{"FID":387,"CORREGIM_I":8125,"NAME":"GUAYABAL","TIPO":"Inspección","CODANE":"05002","CLASE":"IP","CODSITIO":"005","TEMP":"05002005"}},{"type":"Feature","id":388,"geometry":{"type":"Point","coordinates":[-75.401935081317092,5.7098203283065363]},"properties":{"FID":388,"CORREGIM_I":8132,"NAME":"GUADITA","TIPO":"Inspección","CODANE":"05756","CLASE":"IP","CODSITIO":" ","TEMP":"05756"}},{"type":"Feature","id":389,"geometry":{"type":"Point","coordinates":[-75.48482284747098,6.0904627972275795]},"properties":{"FID":389,"CORREGIM_I":8133,"NAME":"LA FE","TIPO":"Inspección","CODANE":"05607","CLASE":"IP","CODSITIO":"002","TEMP":"05607002"}},{"type":"Feature","id":390,"geometry":{"type":"Point","coordinates":[-75.488387967027094,5.7801999710208412]},"properties":{"FID":390,"CORREGIM_I":8134,"NAME":"CHAGUALA","TIPO":"Inspección","CODANE":"05002","CLASE":"IP","CODSITIO":"001","TEMP":"05002001"}},{"type":"Feature","id":391,"geometry":{"type":"Point","coordinates":[-75.484820471984875,5.8194427315112431]},"properties":{"FID":391,"CORREGIM_I":8135,"NAME":"PORTUGAL","TIPO":"Inspección","CODANE":"05002","CLASE":"IP","CODSITIO":"007","TEMP":"05002007"}},